     2.11           OBSERVATION DATA    G (GPS)             RINEX VERSION / TYPE
teqc  2015Nov6      RinexTools-CRAAG    20161009 23:07:02UTCPGM / RUN BY / DATE
Linux2.4.20-8|i386|gcc|Win32-MinGW32|=                      COMMENT
BIT 2 OF LLI FLAGS DATA COLLECTED UNDER A/S CONDITION       COMMENT
ABZH                                                        MARKER NAME
ABZH                                                        MARKER NUMBER
-Unknown-           C.R.A.A.G.                              OBSERVER / AGENCY
462405              LEICA GRX1200PRO    8.20/2.127          REC # / TYPE / VERS
                    LEIAT504        NONE                    ANT # / TYPE
  5106718.0001   270608.4113  3799529.0032                  APPROX POSITION XYZ
        0.0770        0.0000        0.0000                  ANTENNA: DELTA H/E/N
     1     1                                                WAVELENGTH FACT L1/2
     4    C1    L1    P2    L2                              # / TYPES OF OBSERV
    30.0000                                                 INTERVAL
SPIDER                                                      COMMENT
Made by Spider v4.0.0                                       COMMENT
Project creator:                                            COMMENT
                                                            COMMENT
 SNR is mapped to RINEX snr flag value [0-9]                COMMENT
  L1 & L2: min(max(int(snr_dBHz/6), 0), 9)                  COMMENT
teqc edited: all GLONASS satellites excluded                COMMENT
  2014     1     9     7    37    0.0000000     GPS         TIME OF FIRST OBS
                                                            END OF HEADER
 14  1  9  7 37  0.0000000  0 11G19G06G11G16G32G01G27G18G22G03G14
  20717675.840   108872133.331 8  20717673.640    84835414.72948
  21089791.280   110827602.462 8  21089792.240    86359167.97847
  21882873.520   114995272.101 8  21882872.560    89606703.81746
  23031280.460   121030166.604 7  23031281.580    94309209.08346
  22559639.480   118551712.152 7  22559641.300    92377962.72646
  23286898.920   122373461.868 7  23286902.980    95355973.70446
  20567845.600   108084758.779 8  20567847.600    84221899.54748
  24719337.200   129900960.045 6  24719335.840   101221526.95244
  21857260.760   114860680.022 8  21857257.360    89501824.51447
  19896695.380   104557836.266 8  19896695.860    81473641.33548
  23733071.060   124718131.215 6  23733073.720    97182974.55245
 14  1  9  7 37 30.0000000  0 11G19G06G11G16G32G01G27G18G22G03G14
  20711133.080   108837750.961 8  20711130.960    84808623.27048
  21099222.360   110877163.133 8  21099223.340    86397786.65947
  21869840.320   114926781.786 8  21869839.380    89553334.73946
  23050601.140   121131697.232 7  23050602.140    94388323.80246
  22540079.800   118448925.779 7  22540081.700    92297869.48346
  23273221.320   122301585.774 7  23273225.480    95299966.34946
  20573426.900   108114088.674 8  20573428.880    84244753.99148
  24736845.020   129992963.551 6  24736843.360   101293217.90544
  21869452.780   114924749.598 8  21869449.400    89551748.83347
  19900567.840   104578185.871 8  19900568.240    81489498.14848
  23721605.220   124657877.073 6  23721607.540    97136023.27446
 14  1  9  7 38  0.0000000  0 11G19G06G11G16G32G01G27G18G22G03G14
  20704652.100   108803693.263 8  20704650.040    84782084.80048
  21108721.940   110927083.718 8  21108722.920    86436685.79447
  21856842.640   114858478.446 7  21856841.780    89500111.35146
  23069957.800   121233417.067 7  23069958.640    94467585.92546
  22520575.740   118346432.043 7  22520577.780    92218004.28146
  23259571.080   122229853.187 7  23259575.340    95244070.82946
  20579086.680   108143831.047 8  20579088.640    84267929.84648
  24754373.820   130085076.579 6  24754371.460   101364994.06544
  21881714.120   114989183.464 8  21881710.840    89601957.01147
  19904537.440   104599046.157 8  19904537.840    81505752.89048
  23710194.100   124597910.069 6  23710196.040    97089295.77345
 14  1  9  7 38 30.0000000  0 11G19G06G11G16G32G01G27G18G22G03G14
  20698233.300   108769962.115 8  20698231.200    84755800.78048
  21118289.960   110977364.026 8  21118290.920    86475865.23747
  21843880.600   114790362.955 7  21843879.900    89447034.33247
  23089350.120   121335323.495 7  23089350.700    94546993.45846
  22501127.900   118244233.671 7  22501129.940    92138369.21546
  23245948.180   122158264.361 7  23245952.460    95188287.29046
  20584825.100   108173986.422 8  20584827.060    84291427.50848
  24771923.020   130177297.181 6  24771920.540   101436854.13143
  21894044.480   115053979.578 8  21894041.300    89652447.45947
  19908604.260   104620417.493 8  19908604.680    81522405.85648
  23698838.040   124538233.305 6  23698839.900    97042794.40745
 14  1  9  7 39  0.0000000  0 11G19G06G11G16G32G01G27G18G22G03G14
  20691876.880   108736558.763 8  20691874.680    84729772.18048
  21127926.420   111028003.752 8  21127927.340    86515324.74947
  21830954.300   114722435.242 7  21830953.720    89394103.65546
  23108777.420   121437413.229 7  23108777.760    94626543.83346
  22481736.640   118142332.614 7  22481738.620    92058965.82646
  23232352.680   122086818.809 7  23232356.760    95132615.43546
  20590642.120   108204554.561 8  20590644.040    84315246.81248
  24789492.300   130269623.298 6  24789489.880   101508796.28845
  21906443.220   115119135.228 8  21906440.060    89703218.07147
  19912768.260   104642299.414 8  19912768.680    81539456.68548
  23687537.600   124478848.675 6  23687539.380    96996520.65945
 14  1  9  7 39 30.0000000  0 11G19G06G11G16G32G01G27G18G22G03G14
  20685583.220   108703485.146 8  20685581.040    84704000.52948
  21137631.260   111079002.891 8  21137632.160    86555064.31247
  21818064.120   114654696.986 7  21818063.640    89341320.59946
  23128239.200   121539684.399 7  23128239.280    94706235.57346
  22462402.620   118040732.118 7  22462404.540    91979796.66046
  23218784.540   122015517.329 7  23218788.440    95077055.82246
  20596537.840   108235536.532 8  20596539.760    84339388.58548
  24807081.280   130362053.166 6  24807078.940   101580819.39442
  21918910.180   115184648.970 8  21918907.060    89754267.71947
  19917029.620   104664692.896 8  19917030.040    81556906.12948
  23676293.400   124419759.957 6  23676295.080    96950477.46845
 14  1  9  7 40  0.0000000  0 11G19G06G11G16G32G01G27G18G22G03G14
  20679352.460   108670742.100 8  20679350.240    84678486.46348
  21147404.340   111130360.569 8  21147405.200    86595083.26447
  21805209.940   114587147.987 7  21805209.540    89288685.01947
  23147734.680   121642132.721 7  23147734.460    94786065.35546
  22443126.140   117939433.818 7  22443127.980    91900862.96346
  23205243.740   121944359.249 7  23205247.460    95021607.94846
  20602512.180   108266931.890 8  20602514.100    84363852.47048
  24824689.540   130454584.159 6  24824687.360   101652921.29644
  21931444.760   115250518.102 8  21931441.780    89805594.28547
  19921388.220   104687597.331 8  19921388.680    81574753.72248
  23665105.820   124360969.290 6  23665107.600    96904666.51346
 14  1  9  7 40 30.0000000  0 11G19G06G11G16G32G01G27G18G22G03G14
  20673184.880   108638331.228 8  20673182.620    84653231.23948
  21157245.680   111182076.749 8  21157246.480    86635381.57547
  21792392.040   114519789.003 7  21792391.500    89236197.49546
  23167263.320   121744755.797 7  23167263.080    94866031.30846
  22423907.780   117838440.379 7  22423909.520    91822166.78646
  23191730.120   121873344.773 7  23191733.960    94966271.97846
  20608565.340   108298741.088 8  20608567.240    84388638.83348
  24842316.760   130547214.882 6  24842314.740   101725100.84344
  21944046.480   115316740.579 8  21944043.680    89857196.18947
  19925844.080   104711012.789 8  19925844.540    81592999.51148
  23653975.520   124302479.589 6  23653977.460    96859090.10846
 14  1  9  7 41  0.0000000  0 11G19G06G11G16G32G01G27G18G22G03G14
  20667080.680   108606253.417 8  20667078.420    84628235.53648
  21167155.120   111234150.591 8  21167155.800    86675958.56747
  21779610.260   114452620.272 7  21779609.620    89183858.23946
  23186824.540   121847550.418 7  23186824.440    94946130.94546
  22404747.800   117737753.736 7  22404749.500    91743709.69346
  23178243.780   121802473.325 7  23178247.540    94911047.47246
  20614697.080   108330963.783 8  20614699.020    84413747.40248
  24859962.380   130639942.405 6  24859960.740   101797355.91745
  21956714.860   115383313.670 8  21956712.200    89909071.30447
  19930397.160   104734938.994 8  19930397.560    81611643.28748
  23642903.380   124244292.043 6  23642904.480    96813741.89946
 14  1  9  7 41 30.0000000  0 11G19G06G11G16G32G01G27G18G22G03G14
  20661040.300   108574511.334 8  20661038.120    84603501.43748
  21177132.780   111286583.309 8  21177133.420    86716815.20047
  21766864.960   114385643.981 7  21766864.440    89131668.91747
  23206418.100   121950515.384 7  23206418.240    95026363.31746
  22385646.880   117637377.837 7  22385648.500    91665494.72746
  23164784.880   121731746.510 7  23164788.660    94855935.67046
  20620907.840   108363601.810 8  20620909.860    84439179.60048
  24877626.420   130732766.671 6  24877625.160   101869686.30344
  21969449.860   115450236.802 8  21969447.220    89961219.17847
  19935047.640   104759377.269 8  19935047.980    81630686.07648
  23631889.260   124186412.764 6  23631890.480    96768641.15245
 14  1  9  7 42  0.0000000  0 11G19G06G11G16G32G01G27G18G22G03G14
  20655064.020   108543105.731 8  20655061.880    84579029.54348
  21187178.260   111339372.799 8  21187178.960    86757949.84547
  21754156.180   114318859.277 7  21754155.740    89079628.88446
  23226043.080   122053646.064 7  23226043.680    95106724.79646
  22366605.300   117537313.719 7  22366606.900    91587522.71046
  23151353.180   121661162.881 7  23151357.060    94800935.41546
  20627197.440   108396653.875 8  20627199.500    84464934.43048
  24895308.140   130825683.844 6  24895307.200   101942089.10644
  21982250.780   115517506.243 8  21982248.120    90013636.90647
  19939795.320   104784326.511 8  19939795.640    81650127.01948
  23620934.000   124128841.974 7  23620935.400    96723780.77845
 14  1  9  7 42 30.0000000  0 10G19G06G11G16G32G01G27G22G03G14
  20649151.740   108512036.585 8  20649149.580    84554819.81748
  21197291.320   111392517.827 8  21197292.100    86799361.53147
  21741483.900   114252265.818 7  21741483.480    89027737.87646
  23245698.840   122156938.505 7  23245699.800    95187212.34546
  22347623.240   117437562.463 7  22347624.880    91509794.47846
  23137948.580   121590721.251 7  23137952.560    94746045.83746
  20633565.680   108430119.040 8  20633567.740    84491011.14248
  21995116.940   115585118.588 8  21995114.340    90066321.82647
  19944640.020   104809785.474 8  19944640.360    81669965.14948
  23610037.680   124071581.526 7  23610039.240    96679162.24545
 14  1  9  7 43  0.0000000  0 10G19G06G11G16G32G01G27G22G03G14
  20643305.800   108481315.913 8  20643303.680    84530881.63148
  21207474.000   111446028.571 8  21207474.820    86841058.19247
  21728850.080   114185874.764 7  21728849.740    88976004.59447
  23265386.960   122260400.829 7  23265388.160    95267832.26146
  22328703.340   117338137.362 7  22328704.960    91432320.39346
  23124572.960   121520432.377 7  23124577.040    94691275.25546
  20640014.640   108464008.235 8  20640016.700    84517418.28148
  22008049.960   115653082.248 8  22008047.480    90119280.49247
  19949583.720   104835764.698 8  19949584.100    81690208.67648
  23599202.880   124014644.712 6  23599204.580    96634795.83746
 14  1  9  7 43 30.0000000  0 10G19G06G11G16G32G01G27G22G03G14
  20637523.640   108450930.260 8  20637521.500    84507204.50148
  21217723.460   111499890.070 8  21217724.340    86883028.16047
  21716252.060   114119672.019 7  21716251.920    88924418.04947
  23285103.980   122364014.718 7  23285105.400    95348570.28146
  22309843.080   117239025.859 7  22309844.700    91355090.67846
  23111223.700   121450281.484 7  23111227.660    94636612.21446
  20646541.540   108498306.840 8  20646543.560    84544144.43648
  22021046.620   115721380.378 7  22021044.340    90172499.77547
  19954623.520   104862249.034 8  19954623.960    81710845.80048
  23588427.260   123958019.180 6  23588429.240    96590672.03345
 14  1  9  7 44  0.0000000  0 10G19G06G11G16G32G01G27G22G03G14
  20631806.200   108420884.973 8  20631804.060    84483792.58348
  21228040.320   111554105.659 8  21228041.280    86925274.04947
  21703690.760   114053662.107 7  21703690.720    88872981.77746
  23304850.220   122467781.431 7  23304851.600    95429427.38646
  22291043.580   117140234.061 7  22291045.220    91278110.07946
  23097901.380   121380272.278 7  23097905.320    94582059.55746
  20653147.020   108533018.580 8  20653149.020    84571192.51448
  22034107.240   115790014.502 8  22034105.100    90225980.89047
  19959760.200   104889242.477 8  19959760.620    81731879.63048
  23577712.260   123901711.369 6  23577714.260    96546795.80546
 14  1  9  7 44 30.0000000  0 10G19G06G11G16G32G01G27G22G03G14
  20626154.320   108391184.085 8  20626152.200    84460649.03048
  21238424.940   111608677.108 8  21238425.940    86967797.22547
  21691166.820   113987848.251 8  21691166.760    88821698.27147
  23324625.500   122571700.958 7  23324626.760    95510403.55746
  22272305.880   117041766.917 7  22272307.460    91201382.44746
  23084606.420   121310407.186 7  23084610.500    94527619.20947
  20659831.620   108568146.311 8  20659833.600    84598564.74248
  22047231.920   115858984.922 8  22047229.800    90279724.04347
  19964994.300   104916747.737 8  19964994.700    81753312.27448
  23567058.800   123845726.510 7  23567060.580    96503171.26645
 14  1  9  7 45  0.0000000  0 10G19G06G11G16G32G01G27G22G03G14
  20620567.980   108361827.242 8  20620565.840    84437773.55948
  21248877.080   111663602.925 8  21248878.020    87010596.53747
  21678680.100   113922229.637 8  21678679.920    88770566.88846
  23344429.000   122675768.754 7  23344430.100    95591495.25446
  22253630.120   116943625.486 7  22253631.740    91124908.62546
  23071338.760   121240685.046 7  23071343.020    94473290.26747
  20666595.120   108603688.794 8  20666597.120    84626260.14648
  22060419.940   115928287.925 8  22060417.720    90333726.34447
  19970325.480   104944763.141 8  19970325.920    81775142.42748
  23556467.080   123790066.044 7  23556468.440    96459799.51745
 14  1  9  7 45 30.0000000  0 10G19G06G11G16G32G01G27G22G03G14
  20615047.700   108332817.738 8  20615045.540    84415168.74348
  21259396.840   111718883.841 8  21259397.660    87053672.53847
  21666230.920   113856808.253 8  21666230.540    88719589.19447
  23364260.420   122779983.209 7  23364261.400    95672701.24346
  22235016.980   116845813.466 7  22235018.740    91048691.49546
  23058098.600   121171107.013 7  23058102.840    94419073.61646
  20673437.800   108639647.385 8  20673439.900    84654279.80148
  22073671.020   115997922.660 8  22073668.800    90387987.14847
  19975753.940   104973289.822 8  19975754.420    81797370.98448
  23545937.840   123734734.042 7  23545939.060    96416683.70645
 14  1  9  7 46  0.0000000  0 10G19G06G11G16G32G01G27G22G03G14
  20609594.080   108304158.625 8  20609591.860    84392836.95448
  21269984.360   111774521.090 8  21269985.080    87097026.21047
  21653819.640   113791586.449 7  21653819.080    88668767.00546
  23384119.460   122884342.832 7  23384120.260    95754020.34046
  22216467.280   116748334.555 7  22216469.080    90972733.92246
  23044886.080   121101674.625 7  23044890.160    94364970.45246
  20680360.000   108676023.716 8  20680362.180    84682624.95948
  22086985.020   116067888.305 7  22086982.820    90442505.78347
  19981279.940   105002329.240 8  19981280.400    81819999.07348
  23535471.780   123679734.404 7  23535473.080    96373826.92545
 14  1  9  7 46 30.0000000  0 10G19G06G11G16G32G01G27G22G03G14
  20604206.880   108275848.650 8  20604204.660    84370777.22348
  21280639.060   111830511.798 8  21280639.840    87140655.29747
  21641445.940   113726562.464 8  21641445.280    88618098.96946
  23404005.160   122988842.615 7  23404005.880    95835448.66246
  22197981.000   116651188.831 7  22197982.840    90897035.98346
  23031700.920   121032385.519 7  23031704.740    94310978.95346
  20687361.300   108712815.551 8  20687363.520    84711293.89548
  22100361.120   116138180.369 7  22100359.020    90497278.79347
  19986903.000   105031878.778 8  19986903.460    81843024.66448
  23525068.900   123625067.713 7  23525070.380    96331229.56345
 14  1  9  7 47  0.0000000  0 10G19G06G11G16G32G01G27G22G03G14
  20598886.540   108247890.511 8  20598884.360    84348991.64248
  21291361.100   111886856.698 8  21291362.020    87184560.38947
  21629110.280   113661738.199 8  21629109.580    88567586.54647
  23423917.260   123093480.987 7  23423917.960    95916984.96646
  22179558.840   116554379.950 7  22179560.680    90821600.51046
  23018543.160   120963241.095 7  23018546.960    94257100.18746
  20694441.960   108750024.300 8  20694444.120    84740287.69648
  22113799.200   116208798.045 7  22113797.240    90552305.50547
  19992623.460   105061939.743 8  19992623.880    81866448.76648
  23514730.080   123570737.682 7  23514731.780    96288894.53645
 14  1  9  7 47 30.0000000  0 10G19G06G11G16G32G01G27G22G03G14
  20593633.420   108220285.274 8  20593631.280    84327481.05548
  21302150.460   111943554.984 8  21302151.420    87228740.84347
  21616812.700   113597113.917 8  21616812.080    88517229.94247
  23443855.040   123198254.575 7  23443855.880    95998626.63546
  22161201.200   116457909.807 7  22161203.060    90746428.99346
  23005412.860   120894240.810 7  23005416.700    94203333.74847
  20701601.820   108787649.608 8  20701604.000    84769606.08948
  22127298.640   116279738.533 7  22127296.860    90607583.76647
  19998441.140   105092511.561 8  19998441.540    81890270.93748
  23504455.780   123516746.384 7  23504457.600    96246823.47845
 14  1  9  7 50 30.0000000  3  0
 14  1  9  7 50 30.0000000  0 10G01G19G03G27G22G06G32G16G14G11
  22927206.260   120483280.864 7  22927210.460    93883093.96246
  20563539.220   108062125.819 8  20563536.920    84204244.69048
  20035384.580   105286655.315 8  20035385.160    82041552.26648
  20746225.140   109022148.125 8  20746227.360    84952331.98548
  22209561.760   116712032.386 7  22209559.940    90944434.59447
  21368292.380   112291133.590 8  21368293.560    87499588.64347
  22052432.680   115886314.299 7  22052434.120    90301031.91946
  23563991.120   123829605.199 7  23563991.980    96490608.61046
  23444190.380   123200052.270 7  23444192.560    96000046.62146
  21543833.260   113213607.020 8  21543832.880    88218390.53347
 14  1  9  7 51  0.0000000  0 10G01G19G03G27G22G06G32G16G14G11
  22914267.860   120415288.861 7  22914271.920    93830113.19146
  20558763.440   108037029.188 8  20558761.200    84184688.85648
  20041881.160   105320794.923 8  20041881.720    82068154.53248
  20753939.860   109062689.207 8  20753942.080    84983922.40248
  22223479.300   116785169.266 7  22223477.440    91001424.32647
  21379549.660   112350290.714 8  21379550.700    87545685.07347
  22034538.340   115792278.687 7  22034539.760    90227757.45146
  23584093.780   123935244.560 7  23584094.460    96572924.90145
  23434380.880   123148503.980 7  23434383.280    95959879.18746
  21531805.660   113150401.786 8  21531805.280    88169139.69847
 14  1  9  7 51 30.0000000  0 10G01G19G03G27G22G06G32G16G14G11
  22901357.100   120347442.462 7  22901361.140    93777245.86546
  20554057.240   108012298.038 8  20554055.080    84165417.81748
  20048474.780   105355444.525 8  20048475.280    82095154.20348
  20761734.140   109103648.365 8  20761736.340    85015838.59648
  22237455.120   116858612.643 7  22237453.160    91058652.88447
  21390873.660   112409798.421 8  21390874.540    87592054.68747
  22016712.200   115698601.473 7  22016713.500    90154762.24946
  23604218.020   124040997.658 7  23604218.680    96655329.80646
  23424639.960   123097316.416 7  23424642.500    95919992.84846
  21519817.500   113087403.751 8  21519817.120    88120050.32647
 14  1  9  7 52  0.0000000  0 10G01G19G03G27G22G06G32G16G14G11
  22888473.220   120279736.924 7  22888477.140    93724488.33346
  20549420.020   107987929.337 8  20549417.900    84146429.20348
  20055164.440   105390598.892 8  20055164.980    82122547.19748
  20769607.080   109145020.891 8  20769609.320    85048076.89648
  22251487.920   116932355.476 7  22251485.860    91116114.79147
  21402263.400   112469651.638 8  21402264.240    87638693.51547
  21998953.760   115605280.302 7  21998955.040    90082044.49247
  23624362.420   124146857.127 7  23624363.160    96737817.60546
  23414967.560   123046487.719 6  23414969.900    95880386.15646
  21507868.140   113024609.099 8  21507867.680    88071119.42247
 14  1  9  7 52 30.0000000  0 10G01G19G03G27G22G06G32G16G14G11
  22875616.660   120212175.571 7  22875620.540    93671843.14247
  20544852.600   107963927.499 8  20544850.560    84127726.46548
  20061950.780   105426261.354 8  20061951.360    82150336.10548
  20777559.320   109186809.989 8  20777561.560    85080639.79448
  22265577.920   117006398.513 8  22265575.660    91173810.62147
  21413719.360   112529852.935 8  21413720.300    87685603.58247
  21981264.060   115512320.582 7  21981265.380    90009608.38546
  23644527.120   124252823.327 7  23644527.980    96820388.58445
  23405364.640   122996023.435 7  23405366.760    95841063.44846
  21495958.220   112962021.663 8  21495957.700    88022349.99947
 14  1  9  7 53  0.0000000  0 10G01G19G03G27G22G06G32G16G14G11
  22862787.880   120144760.219 7  22862791.740    93619311.70947
  20540355.600   107940295.670 8  20540353.580    84109312.03948
  20068834.100   105462433.511 8  20068834.720    82178522.16848
  20785591.180   109229017.438 8  20785593.400    85113528.69148
  22279725.040   117080741.692 7  22279722.560    91231740.32647
  21425241.780   112590403.627 8  21425242.840    87732785.90447
  21963643.880   115419726.458 7  21963645.360    89937457.16746
  23664711.840   124358895.180 7  23664712.960    96903041.85346
  23395831.860   122945927.778 6  23395833.800    95802027.95146
  21484088.040   112899644.051 8  21484087.600    87973744.05747
 14  1  9  7 53 30.0000000  0 10G01G19G03G27G22G06G32G16G14G11
  22849986.360   120077487.751 7  22849990.240    93566891.61447
  20535928.700   107917032.232 8  20535926.680    84091184.67348
  20075813.720   105499111.630 8  20075814.300    82207102.50448
  20793702.000   109271639.977 8  20793704.220    85146741.03148
  22293928.260   117155379.757 7  22293925.720    91289899.79147
  21436829.940   112651299.979 8  21436831.120    87780237.57047
  21946093.000   115327496.891 7  21946094.680    89865590.02347
  23684915.600   124465066.826 7  23684916.940    96985772.90646
  23386369.060   122896200.205 7  23386370.820    95763279.28545
  21472257.300   112837473.534 8  21472256.920    87925299.50547
 14  1  9  7 54  0.0000000  0 10G01G19G03G27G22G06G32G16G14G11
  22837212.620   120010361.263 7  22837216.480    93514585.28247
  20531572.680   107894141.371 8  20531570.700    84073347.62848
  20082890.180   105536298.439 8  20082890.740    82236079.22048
  20801892.360   109314680.733 8  20801894.640    85180279.24348
  22308187.740   117230313.289 7  22308185.100    91348289.49747
  21448484.420   112712544.401 8  21448485.640    87827960.46047
  21928612.580   115235637.378 7  21928614.400    89794011.21147
  23705138.460   124571338.439 7  23705139.900    97068581.84646
  23376977.200   122846846.376 6  23376978.980    95724821.84846
  21460466.860   112775514.435 8  21460466.460    87877019.69647
 14  1  9  7 54 30.0000000  0 10G01G19G03G27G22G06G32G16G14G11
  22824466.460   119943379.372 7  22824470.300    93462391.60347
  20527287.740   107871623.692 8  20527285.680    84055801.35948
  20090063.080   105573992.115 8  20090063.640    82265450.89348
  20810162.000   109358138.113 8  20810164.260    85214142.10048
  22322502.780   117305538.719 7  22322500.160    91406906.65647
  21460204.820   112774135.054 8  21460205.960    87875953.12947
  21911202.740   115144148.575 7  21911204.720    89722721.28147
  23725379.620   124677705.809 7  23725381.240    97151465.40746
  23367656.580   122797867.348 6  23367658.460    95686656.46846
  21448716.580   112713765.986 8  21448716.040    87828904.01447
 14  1  9  7 55  0.0000000  0 10G01G19G03G27G22G06G32G16G14G11
  22811747.500   119876540.681 7  22811751.320    93410309.51047
  20523073.780   107849478.846 8  20523071.680    84038545.62148
  20097332.080   105612190.981 8  20097332.700    82295216.22248
  20818510.700   109402010.644 8  20818512.900    85248328.45748
  22336872.560   117381052.231 7  22336869.940    91465748.29647
  21471990.740   112836070.013 8  21471991.820    87924214.09647
  21893863.620   115053031.241 7  21893865.620    89651720.81247
  23745638.180   124784164.551 7  23745640.060    97234420.16845
  23358407.460   122749263.709 6  23358409.380    95648783.60546
  21437006.200   112652227.414 8  21437005.640    87780951.88547
 14  1  9  7 55 30.0000000  0 10G01G19G03G27G22G06G32G16G14G11
  22799056.020   119809846.185 7  22799059.800    93358339.76946
  20518931.180   107827708.918 8  20518929.060    84021582.02548
  20104697.320   105650895.415 8  20104697.940    82325375.50848
  20826938.560   109446299.221 8  20826940.760    85282839.00648
  22351296.980   117456852.628 7  22351294.360    91524813.47847
  21483842.200   112898349.394 8  21483843.240    87972743.45047
  21876595.940   114962288.684 7  21876597.800    89581012.37147
  23765913.880   124890713.335 7  23765915.920    97317445.07445
  23349230.780   122701039.696 7  23349232.640    95611206.55745
  21425336.080   112590900.559 8  21425335.540    87733164.71547
 14  1  9  7 56  0.0000000  0 10G01G19G03G27G22G06G32G16G14G11
  22786391.760   119743295.160 7  22786395.540    93306481.83646
  20514860.100   107806314.904 8  20514857.940    84004911.35248
  20112158.520   105690104.288 8  20112159.140    82355927.85648
  20835445.420   109491002.883 8  20835447.600    85317673.00148
  22365775.560   117532937.328 7  22365772.900    91584100.18147
  21495758.900   112960971.754 8  21495759.960    88021540.05447
  21859399.860   114871922.232 8  21859401.500    89510597.01046
  23786205.960   124997348.129 7  23786207.940    97400537.02945
  23340126.680   122653196.619 7  23340128.400    95573926.33946
  21413706.220   112529785.306 8  21413705.780    87685542.44247
 14  1  9  7 56 30.0000000  0 10G01G19G03G27G22G06G32G16G14G11
  22773755.100   119676889.702 7  22773758.920    93254737.33747
  20510861.120   107785300.073 8  20510858.920    83988536.13648
  20119716.040   105729819.534 8  20119716.720    82386874.77648
  20844031.660   109536123.663 8  20844033.820    85352832.02248
  22380308.080   117609305.640 7  22380305.300    91643607.87646
  21507741.160   113023938.653 8  21507742.220    88070605.12947
  21842276.180   114781936.200 7  21842277.520    89440478.06747
  23806514.280   125104068.240 7  23806516.260    97483695.41045
  23331095.880   122605739.145 7  23331097.460    95536946.57546
  21402117.200   112468884.770 8  21402116.900    87638087.48447
 14  1  9  7 57  0.0000000  0 10G01G19G03G27G22G06G32G16G14G11
  22761145.900   119610628.547 7  22761149.880    93203105.27547
  20506934.300   107764664.450 8  20506932.060    83972456.41348
  20127369.480   105770038.691 8  20127370.200    82418214.36048
  20852696.960   109581660.028 8  20852699.080    85388314.87148
  22394893.900   117685954.402 7  22394891.000    91703334.10547
  21519788.580   113087248.170 8  21519789.620    88119937.17347
  21825224.980   114692331.358 7  21825226.180    89370656.17347
  23826838.120   125210869.705 7  23826839.940    97566917.22046
  23322138.560   122558668.071 7  23322139.980    95500267.92346
  21390568.920   112408198.341 8  21390568.780    87590799.35747
 14  1  9  7 57 30.0000000  0 10G01G19G03G27G22G06G32G16G14G11
  22748564.360   119544512.361 7  22748568.240    93151586.17646
  20503080.040   107744410.156 8  20503077.820    83956673.82648
  20135118.960   105810762.144 8  20135119.640    82449946.89748
  20861441.500   109627612.554 8  20861443.600    85424122.00348
  22409532.840   117762882.015 7  22409529.820    91763277.64447
  21531901.260   113150900.563 8  21531902.220    88169536.39747
  21808246.840   114603110.652 7  21808248.020    89301133.59247
  23847176.980   125317750.314 6  23847178.400    97650200.70946
  23313255.380   122511986.816 7  23313256.620    95463892.99046
  21379061.720   112347727.316 8  21379061.660    87543679.08847
 14  1  9  7 58  0.0000000  0 10G01G19G03G27G22G06G32G16G14G11
  22736010.000   119478538.998 7  22736013.840    93100178.38846
  20499298.140   107724536.355 8  20499295.980    83941187.73148
  20142963.840   105851986.972 8  20142964.520    82482070.11748
  20870264.740   109673978.812 8  20870266.860    85460251.52048
  22424223.960   117840083.994 7  22424221.040    91823434.95847
  21544078.480   113214892.493 8  21544079.480    88219400.19647
  21791341.760   114514273.927 8  21791343.060    89231910.21147
  23867529.960   125424705.493 7  23867531.060    97733542.28445
  23304446.320   122465695.421 7  23304447.420    95427821.85446
  21367595.260   112287470.276 8  21367595.120    87496725.55447
 14  1  9  7 58 30.0000000  0 10G01G19G03G27G22G06G32G16G14G11
  22723483.660   119412712.789 7  22723487.460    93048885.25146
  20495589.700   107705048.463 8  20495587.540    83926002.34148
  20150904.820   105893717.088 8  20150905.560    82514587.07048
  20879167.520   109720762.961 8  20879169.640    85496706.66648
  22438967.560   117917562.253 7  22438964.940    91883807.55047
  21556321.120   113279227.898 8  21556322.140    88269531.64147
  21774510.880   114425827.645 7  21774512.300    89162991.08347
  23887897.280   125531736.301 7  23887898.300    97816942.79145
  23295712.600   122419800.440 7  23295713.700    95392059.57646
  21356170.480   112227432.567 8  21356170.240    87449942.93047
 14  1  9  7 59  0.0000000  0 10G01G19G03G27G22G06G32G16G14G11
  22710984.580   119347029.688 7  22710988.320    92997703.64646
  20491954.280   107685944.055 8  20491952.080    83911115.77348
  20158941.100   105935948.132 8  20158941.920    82547494.35748
  20888149.000   109767960.678 8  20888151.080    85533484.07948
  22453762.720   117995310.989 7  22453760.280    91944390.90047
  21568628.200   113343901.888 8  21568629.260    88319926.91547
  21757753.960   114337769.827 7  21757755.420    89094374.62947
  23908277.640   125638835.666 7  23908278.520    97900396.70645
  23287054.000   122374300.404 7  23287055.300    95356605.06846
  21344786.840   112167610.791 8  21344786.460    87403328.55547
 14  1  9  7 59 30.0000000  0 10G01G19G03G27G22G06G32G16G14G11
  22698512.680   119281489.630 7  22698516.460    92946633.45947
  20488392.040   107667224.308 8  20488389.800    83896528.93248
  20167072.560   105978679.277 8  20167073.400    82580791.33048
  20897209.120   109815571.704 8  20897211.160    85570583.55048
  22468608.900   118073327.358 7  22468606.460    92005182.83047
  21580999.600   113408913.737 8  21581000.640    88370585.45147
  21741071.360   114250102.506 7  21741072.860    89026062.46747
  23928670.660   125746001.042 7  23928671.300    97983902.07545
  23278471.200   122329197.664 7  23278472.620    95321460.08646
  21333444.380   112108005.536 8  21333443.880    87356882.90047
 14  1  9  8  0  0.0000000  0 10G01G19G03G27G22G06G32G16G14G11
  22686068.440   119216094.949 7  22686072.300    92895676.58946
  20484903.640   107648892.797 8  20484901.480    83882244.62148
  20175299.580   106021912.549 8  20175300.400    82614479.56948
  20906348.240   109863598.054 8  20906350.280    85608006.64948
  22483505.960   118151611.543 7  22483503.500    92066183.43446
  21593435.560   113474265.024 8  21593436.640    88421508.48347
  21724463.940   114162830.062 8  21724465.480    88958058.00047
  23949076.080   125853231.975 6  23949076.720    98067458.49946
  23269964.940   122284496.527 7  23269966.420    95286628.06646
  21322143.700   112048619.943 8  21322143.120    87310608.39647
 14  1  9  8  0 30.0000000  0 10G01G19G03G27G22G06G32G16G14G11
  22673651.740   119150844.960 7  22673655.620    92844832.44247
  20481489.240   107630950.167 8  20481487.160    83868263.33148
  20183621.880   106065646.344 8  20183622.660    82648557.82848
  20915566.260   109912038.863 8  20915568.320    85645752.69948
  22498453.440   118230160.865 7  22498450.920    92127390.64447
  21605935.860   113539954.302 8  21605936.980    88472694.89347
  21707931.960   114075953.968 8  21707933.480    88890362.38147
  23969493.380   125960525.103 7  23969494.060    98151063.40545
  23261535.440   122240198.954 7  23261536.900    95252110.49745
  21310884.920   111989454.616 8  21310884.260    87264505.53147
 14  1  9  8  1  0.0000000  0 10G01G19G03G27G22G06G32G16G14G11
  22661262.780   119085740.983 7  22661266.720    92794102.07847
  20478149.360   107613398.787 8  20478147.280    83854586.91248
  20192039.560   106109881.220 8  20192040.320    82683026.54048
  20924863.320   109960895.133 8  20924865.500    85683822.48548
  22513451.140   118308974.071 7  22513448.700    92188803.48147
  21618500.540   113605982.015 8  21618501.740    88524145.01847
  21691476.000   113989477.464 7  21691477.480    88822978.12147
  23989922.240   126067878.633 6  23989922.940    98234715.38146
  23253183.200   122196308.206 7  23253184.760    95217909.92746
  21299668.300   111930511.045 8  21299667.580    87218575.47247
 14  1  9  8  1 30.0000000  0 10G01G19G03G27G22G06G32G16G14G11
  22648901.240   119020780.941 7  22648905.200    92743483.87646
  20474883.820   107596238.164 8  20474881.780    83841214.98248
  20200552.120   106154614.512 8  20200552.840    82717883.62948
  20934238.940   110010164.396 8  20934241.260    85722214.08748
  22528498.260   118388047.362 7  22528496.040    92250418.96547
  21631129.140   113672345.491 8  21631130.400    88575856.77247
  21675096.000   113903400.516 8  21675097.480    88755905.20647
  24010361.700   126175287.738 7  24010362.440    98318410.66545
  23244908.400   122152824.470 7  23244910.180    95184026.50746
  21288493.600   111871788.092 8  21288492.960    87172817.31847
 14  1  9  8  2  0.0000000  0 10G01G19G03G27G22G06G32G16G14G11
  22636567.280   118955966.058 7  22636571.300    92692978.81147
  20471693.160   107579470.733 8  20471691.100    83828149.43548
  20209159.600   106199846.799 8  20209160.240    82753129.54448
  20943693.360   110059847.690 8  20943695.700    85760928.31248
  22543594.600   118467379.122 7  22543592.380    92312235.88446
  21643821.720   113739045.228 8  21643823.020    88627830.54647
  21658792.620   113817726.459 7  21658794.140    88689146.23747
  24030811.420   126282750.917 6  24030812.280    98402148.08445
  23236711.860   122109751.760 7  23236713.600    95150463.35646
  21277361.300   111813287.860 8  21277360.780    87127232.71947
 14  1  9  8  2 30.0000000  0 10G01G19G03G27G22G06G32G16G14G11
  22624260.640   118891294.397 7  22624264.720    92642585.32747
  20468577.220   107563095.890 8  20468575.040    83815389.80348
  20217861.480   106245575.385 8  20217862.060    82788762.18448
  20953226.140   110109942.671 8  20953228.480    85799963.32748
  22558739.420   118546965.426 7  22558737.100    92374251.14946
  21656577.760   113806078.371 8  21656579.040    88680064.11747
  21642565.860   113732455.240 7  21642567.460    88622701.16447
  24051270.420   126390263.419 6  24051271.720    98485923.92945
  23228593.540   122067089.851 7  23228595.240    95117220.28645
  21266271.220   111755009.185 8  21266270.780    87081820.76947
 14  1  9  8  3  0.0000000  0 10G01G19G03G27G22G06G32G16G14G11
  22611981.440   118826766.405 7  22611985.520    92592303.77147
  20465536.240   107547115.062 8  20465533.940    83802937.19548
  20226657.680   106291799.948 8  20226658.300    82824781.30248
  20962837.260   110160449.455 8  20962839.580    85839319.23348
  22573932.360   118626804.725 7  22573930.020    92436463.54946
  21669397.240   113873444.699 8  21669398.360    88732557.31547
  21626416.320   113647589.328 8  21626417.880    88556571.90747
  24071738.340   126497822.981 6  24071739.960    98569736.43345
  23220554.080   122024841.862 7  23220555.540    95084299.75146
  21255223.660   111696953.288 8  21255223.200    87036582.40647
 14  1  9  8  3 30.0000000  0 10G01G19G03G27G22G06G32G16G14G11
  22599729.640   118762382.073 7  22599733.600    92542134.15047
  20462570.400   107531529.596 8  20462568.080    83790792.65848
  20235548.160   106338519.710 8  20235548.780    82861186.28648
  20972526.700   110211367.691 8  20972528.960    85878995.74348
  22589172.880   118706894.217 7  22589170.560    92498870.88446
  21682279.900   113941143.201 8  21682280.860    88785309.35347
  21610344.340   113563130.701 7  21610345.880    88490760.01447
  24092214.760   126605426.716 7  24092216.640    98653583.37345
  23212593.900   121983009.622 7  23212595.040    95051703.20946
  21244218.600   111639120.900 8  21244218.080    86991518.19347
 14  1  9  8  4  0.0000000  0 11G01G19G03G27G22G06G32G16G14G20G11
  22587506.700   118698149.291 7  22587510.520    92492082.64447
  20459681.500   107516348.001 8  20459679.160    83778962.81948
  20244534.260   106385742.029 8  20244534.920    82897982.87648
  20982295.920   110262704.905 8  20982298.100    85918998.73448
  22604462.160   118787239.728 7  22604459.800    92561477.71846
  21695227.100   114009180.886 8  21695227.940    88838325.68647
  21594351.760   113479089.175 8  21594353.340    88425273.13147
  24112700.480   126713079.646 6  24112702.620    98737468.63446
  23204714.740   121941603.427 7  23204715.660    95019438.60246
  24658270.780   129580082.004 6  24658273.220   100971502.49345
  21233257.700   111581520.848 8  21233257.160    86946635.03347
 14  1  9  8  4 30.0000000  0 11G01G19G03G27G22G06G32G16G14G20G11
  22575308.700   118634048.206 7  22575312.540    92442133.75847
  20456866.080   107501552.980 8  20456863.800    83767434.22048
  20253612.020   106433446.084 8  20253612.740    82935154.83248
  20992141.020   110314440.768 8  20992143.160    85959312.36148
  22619796.040   118867819.278 7  22619793.500    92624266.93346
  21708234.920   114077537.286 8  21708235.760    88891590.36647
  21578435.220   113395446.704 8  21578436.680    88360097.19047
  24133191.320   126820759.243 7  24133193.640    98821374.65945
  23196913.120   121900605.450 7  23196913.980    94987492.09846
  24637624.760   129471586.210 6  24637627.140   100886960.38145
  21222337.220   111524133.629 8  21222336.780    86901917.72947
 14  1  9  8  5  0.0000000  0 11G01G19G03G27G22G06G32G16G14G20G11
  22563140.080   118570101.124 7  22563143.800    92392304.86847
  20454128.600   107487167.485 8  20454126.320    83756224.72448
  20262785.620   106481653.591 8  20262786.380    82972719.09948
  21002066.100   110366597.295 8  21002068.280    85999953.77548
  22635178.280   118948652.983 7  22635175.560    92687254.18646
  21721307.380   114146233.624 8  21721308.280    88945119.94047
  21562599.300   113312227.792 8  21562600.680    88295251.31547
  24153691.000   126928484.945 7  24153693.220    98905316.60945
  23189193.800   121860040.281 7  23189194.680    94955882.84145
  24616999.680   129363201.627 6  24617002.400   100802504.97845
  21211461.700   111466982.717 8  21211461.300    86857384.54647
 14  1  9  8  5 30.0000000  0 11G01G19G03G27G22G06G32G16G14G20G11
  22550999.020   118506299.355 7  22551002.600    92342589.22447
  20451467.540   107473183.728 8  20451465.380    83745328.28248
  20272053.220   106530354.885 8  20272053.960    83010668.13048
  21012069.420   110419165.301 8  21012071.740    86040915.81948
  22650606.640   119029729.746 7  22650603.960    92750430.82546
  21734442.720   114215260.851 8  21734443.800    88998907.33447
  21546842.660   113229425.465 8  21546843.980    88230730.05247
  24174197.380   127036245.352 6  24174199.380    98989285.62045
  23181555.440   121819901.480 7  23181556.520    94924605.82646
  24596394.480   129254921.248 6  24596397.500   100718130.74144
  21200629.660   111410060.338 8  21200629.240    86813029.44247
 14  1  9  8  6  0.0000000  0 11G01G19G03G27G22G06G32G16G14G20G11
  22538885.260   118442641.561 7  22538888.740    92292985.76847
  20448882.980   107459601.871 8  20448880.900    83734745.00248
  20281414.420   106579548.018 8  20281415.120    83049000.42348
  21022150.740   110472143.079 8  21022153.140    86082197.16448
  22666080.580   119111046.117 7  22666078.040    92813794.17846
  21747640.560   114284616.021 8  21747641.740    89052950.27647
  21531165.420   113147040.466 8  21531166.580    88166533.96147
  24194709.620   127144036.379 6  24194711.280    99073278.46045
  23173998.340   121780189.676 7  23173999.680    94893661.54745
  24575809.340   129146745.473 6  24575812.420   100633838.07745
  21189841.040   111353365.818 8  21189840.560    86768851.89147
 14  1  9  8  6 30.0000000  0 11G01G19G03G27G22G06G32G16G14G20G11
  22526798.860   118379127.528 7  22526802.340    92243494.32247
  20446375.020   107446422.718 8  20446373.020    83724475.52248
  20290868.980   106629231.832 8  20290869.640    83087715.05548
  21032309.940   110525529.918 8  21032312.320    86123797.25748
  22681599.620   119192599.446 7  22681597.240    92877342.16746
  21760900.780   114354298.637 8  21760902.000    89107248.37047
  21515567.740   113065074.272 8  21515568.840    88102664.23047
  24215227.020   127251855.119 6  24215228.540    99157292.93445
  23166523.020   121740906.662 7  23166524.400    94863051.35946
  24555244.320   129038675.831 6  24555247.500   100549628.11044
  21179095.860   111296899.718 8  21179095.420    86724852.32947
 14  1  9  8  7  0.0000000  0 11G01G19G03G27G22G06G32G16G14G20G11
  22514740.100   118315758.740 7  22514743.700    92194116.05246
  20443944.220   107433649.038 8  20443942.360    83714521.99648
  20300416.960   106679406.653 8  20300417.620    83126812.28148
  21042547.220   110579326.859 8  21042549.500    86165716.92248
  22697163.720   119274388.897 7  22697161.400    92941074.13746
  21774223.400   114424308.908 8  21774224.520    89161801.77847
  21500050.420   112983530.329 8  21500051.500    88039123.49947
  24235749.380   127359699.953 6  24235750.740    99241327.73045
  23159130.120   121702056.258 7  23159131.520    94832778.27246
  24534700.040   128930715.613 6  24534703.300   100465503.43445
  21168394.640   111240664.578 8  21168394.220    86681032.72447
 14  1  9  8  7 30.0000000  0 11G01G19G03G27G22G06G32G16G14G20G11
  22502711.580   118252548.682 7  22502715.180    92144861.48447
  20441593.440   107421295.463 8  20441591.600    83704895.82348
  20310060.840   106730085.390 8  20310061.520    83166302.17848
  21052864.920   110633546.930 8  21052867.300    86207966.29448
  22712775.040   119356426.115 7  22712772.740    93004999.18146
  21787610.860   114494659.747 7  21787611.920    89216620.55847
  21484616.340   112902424.040 8  21484617.500    87975923.81547
  24256278.660   127467581.861 6  24256279.940    99325391.40945
  23151822.560   121663654.007 7  23151823.820    94802854.38946
  24514179.500   128822879.844 6  24514182.680   100381475.69845
  21157740.060   111184674.474 8  21157739.660    86637404.06847
 14  1  9  8  8  0.0000000  0 11G01G19G03G27G22G06G32G16G14G20G11
  22490705.460   118189456.642 7  22490709.120    92095698.86847
  20439315.060   107409322.498 8  20439313.280    83695566.23348
  20319792.600   106781226.063 8  20319793.300    83206152.01847
  21063255.320   110688148.885 8  21063257.780    86250513.22648
  22728425.200   119438667.917 7  22728422.980    93069083.63246
  21801055.020   114565309.200 7  21801056.160    89271672.03147
  21469258.140   112821716.412 8  21469259.380    87913034.77647
  24276806.620   127575457.126 6  24276808.060    99409449.89445
  23144593.020   121625661.209 7  23144594.020    94773249.55245
  24493675.260   128715129.354 6  24493678.140   100297514.44544
  21147124.480   111128889.503 8  21147124.140    86593935.25547
 14  1  9  8  8 30.0000000  0 11G01G19G03G27G22G06G32G16G14G20G11
  22478729.320   118126522.177 7  22478733.020    92046659.04746
  20437116.900   107397771.045 8  20437115.080    83686565.08448
  20329619.660   106832867.533 8  20329620.360    83246392.09647
  21073725.880   110743171.786 8  21073728.400    86293388.16148
  22744121.300   119521151.618 7  22744119.180    93133356.57246
  21814563.320   114636296.059 7  21814564.640    89326986.41947
  21453983.720   112741448.875 8  21453985.020    87850488.66247
  24297340.220   127683362.735 6  24297341.900    99493532.02445
  23137449.240   121588119.459 7  23137450.100    94743996.18546
  24473195.060   128607505.542 6  24473197.760   100213651.81045
  21136555.520   111073349.798 8  21136555.300    86550657.55347
 14  1  9  8  9  0.0000000  0 11G01G19G03G27G22G06G32G16G14G20G11
  22466781.080   118063733.813 7  22466784.740    91997733.05946
  20434996.900   107386630.204 8  20434995.000    83677883.90848
  20339539.680   106884997.603 8  20339540.400    83287012.89748
  21084274.260   110798603.655 8  21084276.780    86336581.78948
  22759860.840   119603863.514 7  22759858.860    93197807.32546
  21828133.420   114707607.652 7  21828134.920    89382553.83947
  21438791.320   112661611.801 8  21438792.560    87788277.97347
  24317877.000   127791284.402 6  24317878.820    99577626.68945
  23130389.280   121551019.316 7  23130390.240    94715086.91946
  24452737.120   128499998.857 6  24452739.520   100129880.48345
  21126031.380   111018045.184 8  21126031.200    86507563.04147
 14  1  9  8  9 30.0000000  0 12G01G19G03G27G22G06G32G16G14G20G11G28
  22454860.520   118001091.110 7  22454864.120    91948920.56446
  20432955.260   107375901.043 8  20432953.280    83669523.51648
  20349552.420   106937614.752 8  20349553.120    83328013.24247
  21094900.240   110854443.531 8  21094902.800    86380093.33348
  22775643.340   119686801.017 7  22775641.540    93262433.86246
  21841765.180   114779242.882 8  21841766.720    89438373.44247
  21423681.040   112582206.465 8  21423682.180    87726403.70847
  24338416.360   127899219.134 6  24338418.380    99661731.52145
  23123413.640   121514362.535 7  23123414.880    94686523.11846
  24432301.620   128392610.454 6  24432303.940   100046201.28045
  21115552.100   110962975.852 8  21115551.820    86464651.85647
  25047530.000   131625656.921 5
 14  1  9  8 10  0.0000000  0 12G01G19G03G27G22G06G32G16G14G20G11G28
  22442966.740   117938589.231 7  22442970.340    91900217.78546
  20430991.260   107365579.796 8  20430989.160    83661480.96548
  20359656.640   106990712.868 8  20359657.340    83369388.36047
  21105602.840   110910686.039 8  21105605.420    86423918.61748
  22791467.500   119769957.071 7  22791465.680    93327230.71046
  21855457.500   114851196.010 8  21855459.020    89494440.73647
  21408652.360   112503229.896 8  21408653.400    87664863.55547
  24358956.720   128007159.260 6  24358958.980    99745840.50945
  23116521.920   121478145.952 7  23116523.180    94658302.33245
  24411887.980   128285336.927 6  24411890.360    99962611.56645
  21105116.860   110908137.767 8  21105116.520    86421920.86747
  25032710.060   131547772.232 5  25032709.600   102504763.03644
 14  1  9  8 10 30.0000000  0 11G01G19G03G27G22G06G32G16G14G20G11
  22431101.920   117876238.853 7  22431105.440    91851633.06647
  20429107.120   107355678.219 8  20429104.860    83653765.44148
  20369854.180   107044301.542 8  20369855.000    83411145.73748
  21116384.040   110967341.186 8  21116386.600    86468065.44048
  22807334.740   119853339.857 7  22807332.960    93392204.23346
  21869212.200   114923476.834 7  21869213.620    89550763.40347
  21393707.520   112424694.439 8  21393708.580    87603667.11747
  24379499.700   128115112.195 6  24379502.020    99829959.51045
  23109716.540   121442382.322 7  23109717.660    94630434.52046
  24391498.520   128178190.771 6  24391500.960    99879121.12145
  21094727.780   110853542.374 8  21094727.420    86379378.99647
 14  1  9  8 11  0.0000000  0 11G01G19G03G27G22G06G32G16G14G20G11
  22419263.860   117814028.379 7  22419267.160    91803157.37947
  20427300.920   107346186.067 8  20427298.480    83646368.93848
  20380142.800   107098368.620 8  20380143.720    83453275.89447
  21127241.520   111024396.909 8  21127243.980    86512524.39748
  22823242.460   119936935.744 7  22823240.900    93457343.78647
  21883026.720   114996072.395 7  21883028.080    89607331.30347
  21378844.640   112346590.234 8  21378845.760    87542806.70847
  24400042.540   128223064.066 6  24400044.800    99914077.68145
  23102995.540   121407062.136 7  23102996.560    94602912.23746
  24371131.480   128071162.055 6  24371133.760    99795722.13344
  21084382.840   110799179.179 8  21084382.480    86337018.04847
 14  1  9  8 11 30.0000000  0 11G01G19G03G27G22G06G32G16G14G20G11
  22407453.620   117751965.370 7  22407456.900    91754796.58047
  20425574.080   107337111.690 8  20425571.720    83639297.97648
  20390523.780   107152920.755 8  20390524.740    83495784.01647
  21138176.480   111081860.088 8  21138178.920    86557300.85248
  22839191.780   120020749.950 7  22839190.400    93522653.46646
  21896902.460   115068989.318 7  21896903.680    89664149.61947
  21364065.560   112268926.661 8  21364066.860    87482289.65547
  24420586.040   128331019.725 6  24420588.240    99998198.80445
  23096360.540   121372194.815 7  23096361.480    94575742.86446
  24350788.620   127964260.064 6  24350790.900    99712421.91745
  21074083.620   110745056.184 8  21074083.280    86294844.28247
 14  1  9  8 12  0.0000000  0 11G01G19G03G27G22G06G32G16G14G20G11
  22395671.020   117690046.882 7  22395674.180    91706548.38747
  20423926.440   107328453.288 8  20423924.160    83632551.15848
  20400996.300   107207953.754 8  20400997.200    83538666.83347
  21149188.260   111139727.183 8  21149190.620    86602392.04848
  22855181.780   120104777.536 7  22855180.460    93588129.42846
  21910838.540   115142223.734 7  21910839.760    89721215.32047
  21349370.040   112191702.396 8  21349371.580    87422114.93047
  24441129.180   128438973.546 6  24441131.400   100082318.45945
  23089811.400   121337779.183 7  23089812.400    94548925.44346
  24330469.680   127857483.421 6  24330472.040    99629219.32645
  21063829.700   110691171.284 8  21063829.380    86252856.03447
 14  1  9  8 12 30.0000000  0 12G01G19G03G27G22G06G32G16G14G20G11G28
  22383916.200   117628274.111 7  22383919.220    91658413.76047
  20422358.420   107320213.563 8  20422356.240    83626130.58148
  20411560.320   107263467.673 8  20411561.140    83581924.38947
  21160276.980   111197998.782 8  21160279.380    86647798.43148
  22871212.200   120189017.318 7  22871210.820    93653770.73646
  21924835.060   115215775.812 7  21924836.320    89778528.56847
  21334758.780   112114920.340 8  21334760.480    87362284.75647
  24461671.600   128546923.564 6  24461673.800   100166435.14246
  23083348.840   121303818.398 7  23083349.880    94522462.46746
  24310175.200   127750835.172 6  24310177.620    99546116.82345
  21053621.520   110637526.689 8  21053621.160    86211055.04747
  24959508.020   131163101.021 5  24959504.560   102204998.55655
 14  1  9  8 13  0.0000000  0 12G01G19G03G27G22G06G32G16G14G20G11G28
  22372188.700   117566645.619 7  22372191.920    91610391.55547
  20420869.800   107312391.259 8  20420867.760    83620035.26448
  20422215.320   107319459.860 8  20422216.080    83625554.62847
  21171442.340   111256672.806 8  21171444.760    86693518.39848
  22887282.180   120273465.588 7  22887280.720    93719574.52046
  21938891.580   115289643.049 7  21938892.800    89836087.38747
  21320231.800   112038580.784 8  21320233.600    87302799.40447
  24482212.600   128654865.745 6  24482214.760   100250545.74045
  23076973.040   121270313.419 7  23076974.060    94496354.63646
  24289905.220   127644315.485 6  24289907.620    99463114.44545
  21043458.920   110584121.776 8  21043458.540    86169440.80647
  24945050.880   131087126.627 5  24945050.440   102145797.69745
 14  1  9  8 13 30.0000000  0 11G01G19G03G27G22G06G32G16G14G20G11
  22360489.240   117505164.794 7  22360492.700    91562484.41447
  20419461.580   107304991.294 8  20419459.640    83614269.04248
  20432961.760   107375932.418 8  20432962.460    83669559.18247
  21182684.800   111315751.980 8  21182687.240    86739554.07748
  22903391.920   120358123.637 7  22903390.480    93785541.74446
  21953008.560   115363827.810 7  21953009.640    89893893.62847
  21305790.100   111962688.718 8  21305791.880    87243662.74347
  24502752.340   128762801.018 6  24502754.440   100334650.93245
  23070684.980   121237269.131 7  23070686.060    94470605.81346
  24269660.440   127537924.276 6  24269663.280    99380213.08445
  21033342.740   110530960.563 8  21033342.340    86128016.47247
 14  1  9  8 14  0.0000000  0 11G01G19G03G27G22G06G32G16G14G20G11
  22348817.320   117443828.320 7  22348820.860    91514689.75747
  20418133.340   107298011.367 8  20418131.480    83608830.12948
  20443798.820   107432881.301 8  20443799.480    83713934.89247
  21194003.540   111375232.318 8  21194006.040    86785902.34948
  22919540.520   120442985.873 7  22919539.160    93851668.07246
  21967185.140   115438325.778 7  21967186.180    89951943.92347
  21291433.300   111887242.478 8  21291434.920    87184873.46847
  24523289.520   128870723.072 6  24523291.400   100418745.85744
  23064484.240   121204683.626 7  23064485.500    94445214.50446
  24249440.840   127431669.808 6  24249443.960    99297417.39746
  21023272.560   110478040.942 8  21023272.100    86086780.38647
 14  1  9  8 14 30.0000000  0 11G01G19G03G27G22G06G32G16G14G20G11
  22337173.040   117382637.205 7  22337176.520    91467008.36247
  20416885.420   107291453.519 8  20416883.660    83603720.09348
  20454726.540   107490306.675 8  20454727.200    83758681.89647
  21205398.640   111435114.138 8  21205401.260    86832563.45547
  22935728.000   120528051.055 7  22935726.560    93917952.56246
  21981421.300   115513136.931 7  21981422.460    90010238.26747
  21277161.900   111812244.722 8  21277163.300    87126433.66847
  24543823.720   128978630.262 6  24543825.700   100502829.17345
  23058371.380   121172560.161 7  23058372.760    94420183.24446
  24229246.840   127325549.858 6  24229249.820    99214726.50845
  21013248.600   110425364.354 8  21013248.060    86045733.67347
 14  1  9  8 15  0.0000000  0 11G01G19G03G27G22G06G32G16G14G20G11
  22325556.540   117321591.849 7  22325559.920    91419440.53647
  20415718.140   107285319.316 8  20415716.360    83598940.17048
  20465744.640   107548207.342 8  20465745.360    83803799.26247
  21216870.100   111495397.122 8  21216872.760    86879537.16247
  22951953.700   120613317.248 7  22951952.280    93984393.66546
  21995716.860   115588260.482 7  21995718.200    90068776.02147
  21262976.140   111737697.493 8  21262977.380    87068344.93047
  24564354.680   129086520.352 6  24564356.680   100586899.11745
  23052346.780   121140900.872 7  23052348.240    94395513.68046
  24209078.720   127219566.515 6  24209081.700    99132142.07145
  21003271.080   110372932.151 8  21003270.560    86004877.39847
 14  1  9  8 15 30.0000000  0 11G01G19G03G27G22G06G32G16G14G20G11
  22313967.500   117260691.033 7  22313970.880    91371985.34947
  20414631.440   107279608.327 8  20414629.580    83594490.02448
  20476852.700   107606580.833 8  20476853.540    83849285.05047
  21228417.560   111556079.297 8  21228420.220    86926821.93147
  22968217.040   120698781.056 7  22968215.540    94050988.75246
  22010071.400   115663694.012 7  22010072.900    90127555.32647
  21248876.080   111663601.007 8  21248877.240    87010607.42347
  24584881.740   129194389.516 6  24584883.660   100670952.82945
  23046410.600   121109706.193 7  23046412.040    94371206.16646
  24188936.820   127113719.925 6  24188939.740    99049664.22545
  20993339.980   110320743.981 8  20993339.600    85964211.28447
 14  1  9  8 16  0.0000000  0 12G01G19G03G27G22G06G32G16G14G20G11G28
  22302406.560   117199937.704 7  22302409.820    91324645.08947
  20413626.080   107274324.544 8  20413624.100    83590372.76648
  20488051.100   107665428.885 8  20488052.040    83895140.63447
  21240041.420   111617162.918 8  21240044.020    86974419.51048
  22984518.140   120784443.337 7  22984516.540    94117738.49546
  22024485.260   115739439.618 7  22024486.920    90186577.80647
  21234862.600   111589959.938 8  21234863.740    86953224.77847
  24605404.760   129302237.679 6  24605406.640   100754990.10944
  23040563.800   121078981.141 7  23040565.120    94347264.57846
  24168821.960   127008014.873 6  24168824.420    98967296.69544
  20983456.020   110268803.775 8  20983455.800    85923738.38647
  24859625.100   130638208.441 5  24859625.080   101796011.88045
 14  1  9  8 16 30.0000000  0 11G01G19G03G27G22G06G32G16G14G20G11
  22290872.980   117139328.135 7  22290876.160    91277416.84947
  20412701.460   107269465.245 8  20412699.440    83586586.26448
  20499338.920   107724746.593 8  20499339.920    83941362.17947
  21251740.840   111678643.465 8  21251743.380    87022326.38447
  23000855.880   120870298.228 7  23000854.180    94184638.32846
  22038957.500   115815492.162 7  22038959.220    90245839.44547
  21220935.320   111516771.997 8  21220936.460    86896195.22647
  24625922.500   129410058.300 6  24625924.500   100839005.94645
  23034805.820   121048723.419 7  23034807.220    94323687.14646
  24148733.740   126902449.406 6  24148735.520    98885037.90444
  20973618.740   110217108.533 8  20973618.480    85883456.35547
 14  1  9  8 17  0.0000000  0 11G01G19G03G27G22G06G32G16G14G20G11
  22279367.220   117078864.798 7  22279370.460    91230302.54447
  20411858.120   107265033.431 8  20411856.100    83583132.87348
  20510716.380   107784535.444 8  20510717.400    83987950.84947
  21263516.140   111740522.697 8  21263518.600    87070543.91747
  23017230.300   120956345.844 7  23017228.600    94251688.32746
  22053488.520   115891853.143 7  22053490.300    90305341.43247
  21207095.040   111444041.250 8  21207096.160    86839521.91947
  24646435.080   129517851.650 6  24646436.860   100923000.53745
  23029137.620   121018937.253 7  23029139.040    94300477.17146
  24128672.840   126797027.409 6  24128674.520    98802890.99845
  20963828.660   110165661.397 8  20963828.320    85843367.65947
 14  1  9  8 17 30.0000000  0 11G01G19G03G27G22G06G32G16G14G20G11
  22267889.060   117018546.531 7  22267892.320    91183301.29547
  20411096.200   107261029.397 8  20411094.160    83580012.82148
  20522183.040   107844792.981 8  20522184.040    84034904.73547
  21275366.940   111802798.657 8  21275369.360    87119070.59147
  23033640.800   121042582.584 7  23033638.980    94318885.69946
  22068077.920   115968520.395 7  22068079.580    90365082.07847
  21193341.840   111371768.004 8  21193342.980    86783205.11447
  24666941.540   129625613.331 6  24666943.400   101006970.44445
  23023559.400   120989623.391 7  23023560.880    94277635.22746
  24108639.460   126691749.607 6  24108640.920    98720856.38445
  20954085.780   110114462.296 8  20954085.380    85803472.24347
 14  1  9  8 18  0.0000000  0 11G01G19G03G27G22G06G32G16G14G20G11
  22256439.100   116958376.804 7  22256442.400    91136415.78347
  20410416.560   107257457.565 8  20410414.460    83577229.54048
  20533739.300   107905521.203 8  20533740.260    84082225.38947
  21287293.720   111865473.951 8  21287296.080    87167908.43847
  23050087.540   121129009.977 7  23050085.620    94386231.61346
