     2.11           OBSERVATION DATA    G (GPS)             RINEX VERSION / TYPE
teqc  2015Nov6      RinexTools-CRAAG    20161009 23:07:02UTCPGM / RUN BY / DATE
Linux2.4.20-8|i386|gcc|Win32-MinGW32|=                      COMMENT
BIT 2 OF LLI FLAGS DATA COLLECTED UNDER A/S CONDITION       COMMENT
ABZH                                                        MARKER NAME
ABZH                                                        MARKER NUMBER
-Unknown-           C.R.A.A.G.                              OBSERVER / AGENCY
462405              LEICA GRX1200PRO    8.20/2.127          REC # / TYPE / VERS
                    LEIAT504        NONE                    ANT # / TYPE
  5106715.6603   270605.8996  3799527.8127                  APPROX POSITION XYZ
        0.0770        0.0000        0.0000                  ANTENNA: DELTA H/E/N
     1     1                                                WAVELENGTH FACT L1/2
     4    C1    L1    P2    L2                              # / TYPES OF OBSERV
    30.0000                                                 INTERVAL
SPIDER                                                      COMMENT
Made by Spider v4.0.0                                       COMMENT
Project creator:                                            COMMENT
                                                            COMMENT
 SNR is mapped to RINEX snr flag value [0-9]                COMMENT
  L1 & L2: min(max(int(snr_dBHz/6), 0), 9)                  COMMENT
teqc edited: all GLONASS satellites excluded                COMMENT
  2014     1    10     0     0    0.0000000     GPS         TIME OF FIRST OBS
                                                            END OF HEADER
 14  1 10  0  0  0.0000000  0  7G02G31G25G14G24G12G29
  23192018.320   121874876.563 7  23192015.640    94967421.32446
  24385632.520   128147359.912 6  24385631.740    99855086.17645
  20721765.060   108893676.565 8  20721766.600    84852258.45848
  21670519.980   113879354.000 7  21670519.300    88737146.69147
  22232125.660   116830665.164 7  22232128.220    91036920.56847
  21155988.480   111175600.830 8  21155987.680    86630386.06547
  20933761.760   110007747.912 8  20933761.360    85720356.03648
 14  1 10  0  0 30.0000000  0  7G02G31G25G14G24G12G29
  23188501.380   121856395.100 7  23188498.780    94953020.21146
  24367631.800   128052766.112 6  24367630.880    99781376.75045
  20718639.260   108877250.580 8  20718640.860    84839458.98548
  21670317.120   113878287.264 7  21670316.320    88736315.46847
  22247020.100   116908935.998 7  22247022.740    91097910.82047
  21164470.460   111220174.004 8  21164469.640    86665118.40247
  20921151.840   109941482.414 8  20921151.460    85668720.59448
 14  1 10  0  1  0.0000000  0  7G02G31G25G14G24G12G29
  23185071.080   121838369.253 7  23185068.660    94938974.11146
  24349634.160   127958188.325 7  24349633.040    99707679.81645
  20715557.040   108861053.906 8  20715558.760    84826838.20448
  21670226.380   113877810.233 7  21670225.540    88735943.75047
  22261973.480   116987516.291 7  22261976.180    91159142.20547
  21172983.280   111264909.509 8  21172982.400    86699977.23747
  20908627.920   109875669.123 8  20908627.640    85617437.52248
 14  1 10  0  1 30.0000000  0  7G02G31G25G14G24G12G29
  23181727.360   121820798.761 7  23181725.060    94925282.83546
  24331639.600   127863626.807 7  24331638.360    99633995.54346
  20712518.120   108845084.828 8  20712519.980    84814394.77148
  21670247.580   113877921.527 7  21670246.720    88736030.46647
  22276985.440   117066404.048 7  22276988.100    91220613.18747
  21181526.780   111309806.054 8  21181525.820    86734961.55447
  20896190.060   109810308.358 8  20896189.900    85566507.05548
 14  1 10  0  2  0.0000000  0  7G02G31G25G14G24G12G29
  23178470.540   121803684.041 7  23178468.140    94911946.71846
  24313648.300   127769082.216 7  24313647.080    99560324.45846
  20709522.340   108829342.148 8  20709524.300    84802127.74948
  21670380.560   113878620.405 7  21670379.760    88736575.03847
  22292055.320   117145596.928 7  22292057.980    91282321.91847
  21190100.540   111354861.362 8  21190099.520    86770069.57647
  20883838.360   109745400.396 8  20883838.280    85515929.42748
 14  1 10  0  2 30.0000000  0  7G02G31G25G14G24G12G29
  23175300.880   121787027.365 7  23175298.300    94898967.51046
  24295660.680   127674557.203 7  24295659.560    99486668.64446
  20706569.840   108813826.669 8  20706571.760    84790037.76848
  21670625.480   113879907.045 7  21670624.640    88737577.61047
  22307183.340   117225095.112 7  22307185.920    91344268.55147
  21198704.620   111400075.832 8  21198703.520    86805301.62847
  20871573.320   109680947.304 8  20871573.240    85465706.25148
 14  1 10  0  3  0.0000000  0  7G02G31G25G14G24G12G29
  23172218.620   121770829.769 7  23172215.900    94886346.02446
  24277677.020   127580052.965 7  24277675.960    99413028.99746
  20703660.520   108798537.873 8  20703662.380    84778124.41948
  21670982.120   113881781.146 7  21670981.280    88739037.93647
  22322369.240   117304897.455 7  22322371.740    91406452.18347
  21207338.780   111445448.635 8  21207337.600    86840657.05447
  20859395.160   109616950.397 8  20859395.040    85415838.54148
 14  1 10  0  3 30.0000000  0  7G02G31G25G14G24G12G29
  23169223.780   121755092.099 7  23169221.080    94874082.90846
  24259697.560   127485570.906 7  24259696.480    99339406.64246
  20700794.280   108783475.426 8  20700796.160    84766387.45048
  21671450.500   113884242.318 7  21671449.700    88740955.72947
  22337612.700   117385002.420 7  22337615.100    91468871.63647
  21216003.000   111490979.209 8  21216001.620    86876135.41047
  20847304.060   109553410.922 8  20847303.820    85366327.27048
 14  1 10  0  4  0.0000000  0  7G02G31G25G14G24G12G29
  23166316.540   121739814.723 7  23166313.960    94862178.46846
  24241722.480   127391111.594 7  24241721.360    99265802.00945
  20697970.780   108768637.754 8  20697972.640    84754825.62448
  21672030.200   113887288.738 7  21672029.480    88743329.55447
  22352913.400   117465408.341 7  22352915.780    91531525.61147
  21224696.800   111536665.213 8  21224695.420    86911734.88447
  20835299.960   109490328.762 8  20835299.700    85317172.34848
 14  1 10  0  4 30.0000000  0  7G02G31G25G14G24G12G29
  23163497.180   121724998.894 7  23163494.700    94850633.69046
  24223752.060   127296676.880 6  24223751.020    99192216.53946
  20695190.060   108754025.038 8  20695191.840    84743439.08648
  21672721.340   113890920.837 7  21672720.680    88746159.75147
  22368271.160   117546114.146 7  22368273.620    91594413.23947
  21233420.120   111582506.582 8  21233418.840    86947455.42947
  20823383.080   109427705.377 8  20823382.920    85268374.91648
 14  1 10  0  5  0.0000000  0  7G02G31G25G14G24G12G29
  23160765.900   121710646.489 7  23160763.640    94839450.00446
  24205786.940   127202270.034 6  24205786.020    99118652.79346
  20692452.340   108739638.337 8  20692454.060    84732228.66848
  21673523.960   113895139.165 7  21673523.300    88749446.76047
  22383686.080   117627120.118 7  22383688.560    91657534.76347
  21242173.160   111628503.876 8  21242171.920    86983297.47247
  20811554.060   109365543.696 8  20811554.040    85219937.24948
 14  1 10  0  5 30.0000000  0  7G02G31G25G14G24G12G29
  23158123.120   121696758.647 7  23158120.800    94828628.30946
  24187827.200   127107891.305 6  24187826.360    99045110.93146
  20689757.440   108725476.718 8  20689759.200    84721193.63848
  21674438.040   113899942.945 7  21674437.380    88753189.95347
  22399157.840   117708424.690 7  22399160.340    91720888.96647
  21250955.780   111674656.537 8  21250954.580    87019260.57947
  20799812.900   109303843.873 8  20799813.000    85171859.46848
 14  1 10  0  6  0.0000000  0  7G02G31G25G14G24G12G29
  23155568.620   121683334.498 7  23155566.200    94818167.95646
  24169873.020   127013540.858 7  24169872.160    98971591.12046
  20687105.000   108711538.168 8  20687106.820    84710332.43048
  21675463.100   113905329.771 7  21675462.340    88757387.48247
  22414685.840   117790025.091 7  22414688.400    91784473.68047
  21259767.260   111720961.332 8  21259766.220    87055342.23147
  20788159.600   109242605.457 8  20788159.740    85124141.23148
 14  1 10  0  6 30.0000000  0  7G02G31G25G14G24G12G29
  23153103.080   121670377.352 7  23153100.460    94808071.50046
  24151925.100   126919222.972 7  24151924.080    98898096.67246
  20684495.480   108697824.995 8  20684497.340    84699646.84348
  21676599.540   113911301.680 7  21676598.720    88762040.90347
  22430270.320   117871922.467 7  22430273.000    91848289.80947
  21268608.140   111767420.673 8  21268607.120    87091544.30447
  20776594.960   109181832.522 8  20776595.000    85076785.70548
 14  1 10  0  7  0.0000000  0  7G02G31G25G14G24G12G29
  23150726.400   121657887.885 7  23150723.880    94798339.45046
  24133983.460   126824938.400 6  24133982.380    98824628.18646
  20681928.680   108684336.181 8  20681930.560    84689136.08348
  21677847.060   113917857.555 7  21677846.340    88767149.36147
  22445910.980   117954115.121 7  22445913.780    91912336.02147
  21277478.020   111814032.669 8  21277477.020    87127865.33647
  20765118.940   109121524.926 8  20765118.760    85029792.77948
 14  1 10  0  7 30.0000000  0  7G02G31G25G14G24G12G29
  23148439.160   121645868.930 7  23148436.740    94788974.05446
  24116048.740   126730690.644 6  24116047.600    98751188.39346
  20679404.840   108671073.323 8  20679406.700    84678801.38648
  21679205.980   113924998.707 7  21679205.300    88772713.88947
  22461607.980   118036603.546 7  22461610.880    91976612.70647
  21286377.180   111860798.383 8  21286376.200    87164306.14647
  20753732.060   109061685.737 8  20753731.700    84983164.85648
 14  1 10  0  8  0.0000000  0  7G02G31G25G14G24G12G29
  23146240.940   121634318.210 7  23146238.780    94779973.49346
  24098120.740   126636478.145 7  24098119.620    98677776.06946
  20676923.280   108658032.931 8  20676925.140    84668640.04648
  21680675.580   113932721.197 7  21680674.860    88778731.39747
  22477360.500   118119383.514 7  22477363.420    92041116.57947
  21295305.060   111907714.862 8  21295304.080    87200864.43347
  20742433.860   109002313.017 8  20742433.400    84936900.40948
 14  1 10  0  8 30.0000000  0  7G02G31G25G14G24G12G29
  23144131.940   121623236.354 7  23144130.060    94771338.29146
  24080199.800   126542302.342 7  24080198.600    98604392.34446
  20674483.920   108645214.489 8  20674485.820    84658651.64948
  21682255.600   113941024.313 7  21682254.920    88785201.35447
  22493168.360   118202453.782 7  22493171.180    92105846.64447
  21304261.460   111954780.975 8  21304260.440    87237539.31647
  20731224.500   108943407.740 8  20731224.120    84891000.20348
 14  1 10  0  9  0.0000000  0  7G02G31G25G14G24G12G29
  23142113.000   121612627.315 7  23142111.160    94763071.54046
  24062286.720   126448168.032 7  24062285.480    98531040.95746
  20672087.420   108632620.801 8  20672089.320    84648838.38648
  21683946.500   113949910.418 7  21683945.920    88792125.57747
  22509031.820   118285816.472 7  22509034.600    92170804.57447
  21313246.720   112001998.764 8  21313245.620    87274332.39247
  20720104.740   108884973.629 8  20720104.500    84845467.14548
 14  1 10  0  9 30.0000000  0  7G02G31G25G14G24G12G29
  23140184.340   121602492.170 7  23140182.360    94755174.01846
  24044381.760   126354076.620 7  24044380.460    98457722.98746
  20669733.680   108620251.659 8  20669735.600    84639200.09848
  21685748.200   113959378.799 7  21685747.720    88799503.53047
  22524950.580   118369469.932 7  22524953.360    92235989.08147
  21322260.840   112049367.611 8  21322259.640    87311243.17447
  20709074.880   108827011.773 8  20709074.700    84800302.06448
 14  1 10  0 10  0.0000000  0  7G02G31G25G14G24G12G29
  23138345.720   121592829.650 7  23138343.500    94747644.80246
  24026484.880   126260027.691 7  24026483.540    98384438.10846
  20667422.200   108608104.834 8  20667424.180    84629735.03348
  21687660.320   113969427.081 7  21687659.900    88807333.35047
  22540924.120   118453411.272 7  22540926.880    92301397.90447
  21331303.320   112096885.234 8  21331302.000    87348269.88147
  20698134.780   108769521.386 8  20698134.580    84755504.37048
 14  1 10  0 10 30.0000000  0  7G02G31G25G14G24G12G29
  23136597.220   121583640.587 7  23136594.880    94740484.51446
  24008596.440   126166022.955 7  24008595.120    98311187.68946
  20665152.920   108596179.905 8  20665154.960    84620442.88548
  21689682.620   113980054.226 7  21689682.260    88815614.24047
  22556952.240   118537639.307 7  22556954.900    92367030.11847
  21340373.960   112144551.091 8  21340372.560    87385412.09747
  20687284.600   108712503.510 8  20687284.460    84711074.87848
 14  1 10  0 11  0.0000000  0  7G02G31G25G14G24G12G29
  23134939.240   121574927.470 7  23134936.860    94733695.09446
  23990716.980   126072065.680 7  23990715.640    98237974.25846
  20662926.180   108584478.071 8  20662928.160    84611324.57548
  21691815.160   113991260.837 7  21691814.820    88824346.66647
  22573035.020   118622154.108 7  22573037.420    92432885.79746
  21349472.760   112192365.590 8  21349471.340    87422670.14647
  20676524.820   108655960.327 8  20676524.660    84667015.26348
 14  1 10  0 11 30.0000000  0  7G02G31G25G14G24G12G29
  23133372.020   121566691.936 7  23133369.760    94727277.79546
  23972846.860   125978158.115 7  23972845.580    98164799.53846
  20660741.960   108572999.909 8  20660743.940    84602380.54948
  21694057.980   114003046.880 7  21694057.640    88833530.59447
  22589172.120   118706954.847 7  22589174.400    92498964.30347
  21358599.840   112240329.108 8  21358598.460    87460044.30447
  20665855.720   108599893.562 8  20665855.540    84623326.89248
 14  1 10  0 12  0.0000000  0  7G02G31G25G14G24G12G29
  23131895.940   121558934.660 7  23131893.600    94721233.15746
  23954986.500   125884302.290 7  23954985.360    98091665.14646
  20658600.220   108561745.376 8  20658602.300    84593610.78648
  21696411.000   114015412.076 7  21696410.660    88843165.81347
  22605363.480   118792041.249 7  22605365.900    92565265.39047
  21367755.260   112288441.193 8  21367753.960    87497534.23247
  20655277.460   108544304.357 8  20655277.260    84580010.63748
 14  1 10  0 12 30.0000000  0  7G02G31G25G14G24G12G29
  23130510.520   121551653.743 7  23130508.000    94715559.73546
  23937135.720   125790496.833 7  23937134.740    98018570.01946
  20656500.500   108550711.205 8  20656502.600    84585012.73948
  21698873.560   114028352.648 7  21698873.140    88853249.37447
  22621608.340   118877408.704 7  22621610.840    92631785.47446
  21376938.260   112336698.334 8  21376937.020    87535137.19147
  20644789.660   108489190.649 8  20644789.440    84537064.90448
 14  1 10  0 13  0.0000000  0  7G02G31G25G14G24G12G29
  23129216.220   121544851.297 7  23129213.540    94710259.14846
  23919295.320   125696745.235 7  23919294.380    97945516.83446
  20654443.120   108539899.016 8  20654445.080    84576587.64748
  21701445.760   114041869.224 7  21701445.180    88863781.75547
  22637906.780   118963057.571 7  22637909.240    92698524.82847
  21386148.960   112385101.664 8  21386147.860    87572854.08247
  20634392.900   108434555.270 8  20634392.640    84494491.89848
 14  1 10  0 13 30.0000000  0  7G02G31G25G14G24G12G29
  23128013.080   121538528.057 7  23128010.320    94705331.96946
  23901465.400   125603048.596 7  23901464.520    97872506.49746
  20652427.820   108529308.065 8  20652429.660    84568334.96448
  21704127.340   114055960.636 7  21704126.680    88874762.06747
  22654258.500   119048986.382 7  22654260.920    92765482.32346
  21395387.380   112433650.409 8  21395386.460    87610684.27547
  20624087.220   108380398.703 8  20624086.920    84452291.98448
 14  1 10  0 14  0.0000000  0  7G02G31G25G14G24G12G29
  23126901.080   121532684.250 7  23126898.280    94700778.36346
  23883646.300   125509408.530 7  23883645.340    97799540.22646
  20650454.440   108518937.799 8  20650456.240    84560254.24148
  21706918.060   114070625.688 7  21706917.340    88886189.35547
  22670663.300   119135194.051 7  22670665.740    92832657.12646
  21404653.240   112482343.442 8  21404652.520    87648626.89747
  20613872.700   108326721.332 8  20613872.380    84410465.46948
 14  1 10  0 14 30.0000000  0  7G02G31G25G14G24G12G29
  23125880.840   121527323.644 7  23125878.100    94696601.27346
  23865838.760   125415829.428 7  23865837.780    97726621.47646
  20648523.500   108508790.801 8  20648525.380    84552347.48848
  21709818.240   114085866.139 7  21709817.500    88898065.02447
  22687121.320   119221681.383 7  22687123.660    92900049.84246
  21413947.140   112531183.019 8  21413946.320    87686683.69447
  20603750.100   108273527.028 8  20603749.840    84369015.36848
 14  1 10  0 15  0.0000000  0  7G02G31G25G14G24G12G29
  23124952.200   121522444.792 7  23124949.580    94692799.58146
  23848042.820   125322311.004 6  23848041.700    97653749.96846
  20646634.640   108498864.759 8  20646636.540    84544612.90948
  21712827.360   114101679.119 7  21712826.600    88910386.82647
  22703631.900   119308445.179 7  22703634.160    92967657.97446
  21423268.460   112580166.389 8  21423267.440    87724852.54847
  20593719.180   108220814.227 8  20593718.960    84327940.46948
 14  1 10  0 15 30.0000000  0  7G02G31G25G14G24G12G29
  23124115.840   121518049.667 7  23124113.120    94689374.82946
  23830258.800   125228856.625 7  23830257.820    97580928.42046
  20644788.080   108489160.976 8  20644789.960    84537051.52648
  21715945.500   114118065.121 7  21715944.740    88923155.13147
  22720195.200   119395485.835 7  22720197.480    93035481.85347
  21432617.420   112629294.539 8  21432616.140    87763134.21547
  20583780.380   108168585.394 8  20583780.220    84287242.68548
 14  1 10  0 16  0.0000000  0  7G02G31G25G14G24G12G29
  23123371.140   121514136.143 7  23123368.400    94686325.31746
  23812486.840   125135465.165 6  23812485.960    97508155.82446
  20642983.240   108479676.457 8  20642985.140    84529660.99248
  21719171.920   114135020.322 7  21719171.260    88936366.97247
  22736810.420   119482799.350 7  22736812.680    93103518.33646
  21441993.380   112678564.574 8  21441991.940    87801526.43447
  20573933.340   108116838.539 8  20573933.160    84246920.47748
 14  1 10  0 16 30.0000000  0  7G02G31G25G14G24G12G29
  23122719.060   121510709.400 7  23122716.400    94683655.13846
  23794727.900   125042142.564 7  23794727.220    97435436.95146
  20641220.920   108470415.377 8  20641222.840    84522444.56348
  21722507.320   114152548.080 7  21722506.720    88950024.96447
  22753478.020   119570388.794 7  22753480.440    93171769.84946
  21451396.860   112727980.122 8  21451395.380    87840032.05147
  20564179.040   108065578.890 8  20564178.780    84206977.90148
 14  1 10  0 17  0.0000000  0  7G02G31G25G14G24G12G29
  23122158.420   121507762.875 7  23122155.640    94681359.15746
  23776981.320   124948883.743 7  23776980.600    97362767.75546
  20639499.700   108461370.397 8  20639501.560    84515396.52748
  21725950.160   114170640.314 7  21725949.620    88964122.80847
  22770196.480   119658245.314 7  22770199.100    93240229.47446
  21460826.500   112777533.049 8  21460824.940    87878644.71047
  20554516.140   108014799.986 8  20554515.820    84167409.93248
 14  1 10  0 17 30.0000000  0  7G02G31G25G14G24G12G29
  23121690.000   121505301.004 7  23121687.080    94679440.82246
  23759248.100   124855694.352 7  23759247.200    97290152.65346
  20637820.280   108452545.119 8  20637822.100    84508519.69748
  21729500.920   114189299.720 7  21729500.340    88978662.59147
  22786966.340   119746371.631 7  22786968.940    93308899.31447
  21470283.080   112827227.392 8  21470281.540    87917367.56047
  20544945.580   107964506.344 8  20544945.180    84128220.09748
 14  1 10  0 18  0.0000000  0  7G02G31G25G14G24G12G29
  23121314.180   121503325.665 7  23121311.140    94677901.61146
  23741528.700   124762577.302 7  23741527.500    97217593.91946
  20636182.920   108443940.513 8  20636184.680    84501814.81448
  21733159.620   114208526.242 7  21733158.960    88993644.28847
  22803787.620   119834768.065 7  22803790.080    93377779.65247
  21479766.600   112877063.633 8  21479765.120    87956200.98347
  20535467.680   107914699.958 8  20535467.260    84089409.93748
 14  1 10  0 18 30.0000000  0  7G02G31G25G14G24G12G29
  23121030.840   121501836.249 7  23121027.720    94676741.03546
  23723823.140   124669533.144 7  23723821.640    97145091.99846
  20634587.280   108435555.474 8  20634589.060    84495281.00748
  21736925.840   114228317.862 7  21736925.220    89009066.33147
  22820659.780   119923431.496 7  22820662.140    93446868.02646
  21489276.640   112927039.856 8  21489275.260    87995143.48247
  20526082.440   107865380.444 8  20526082.060    84050979.15948
 14  1 10  0 19  0.0000000  0  7G02G31G25G14G24G12G29
  23120839.800   121500832.337 7  23120836.700    94675958.76846
  23706131.740   124576563.355 7  23706129.900    97072648.01746
  20633033.140   108427388.923 8  20633035.040    84488917.46248
  21740799.300   114248672.858 7  21740798.740    89024927.35747
  22837582.500   120012360.202 7  22837584.680    93516163.10546
  21498813.100   112977154.762 8  21498811.820    88034194.06447
  20516789.840   107816547.793 8  20516789.520    84012927.74948
 14  1 10  0 19 30.0000000  0  7G02G31G25G14G24G12G29
  23120741.820   121500317.643 7  23120738.820    94675557.70846
  23688455.280   124483672.164 7  23688453.220    97000265.27346
  20631521.100   108419443.624 8  20631523.120    84482726.32948
  21744780.240   114269592.918 7  21744779.740    89041228.69447
  22854556.020   120101555.971 7  22854558.020    93585666.30846
  21508376.480   113027411.459 8  21508375.420    88073355.12147
  20507590.600   107768205.763 8  20507590.360    83975258.63948
 14  1 10  0 20  0.0000000  0  7G02G31G25G14G24G12G29
  23120737.320   121500294.248 7  23120734.300    94675539.49446
  23670794.340   124390863.342 7  23670792.320    96927946.70945
  20630051.600   108411721.040 8  20630053.600    84476708.72248
  21748868.720   114291078.188 7  21748868.240    89057970.45147
  22871580.240   120191018.672 7  22871582.240    93655377.47946
  21517967.040   113077810.739 8  21517966.300    88112627.27447
  20498485.140   107720356.568 8  20498484.980    83937973.55848
 14  1 10  0 20 30.0000000  0  7G02G31G25G14G24G12G29
  23120825.280   121500756.846 7  23120822.180    94675899.97746
  23653148.160   124298132.479 7  23653146.260    96855688.90146
  20628623.320   108404215.159 8  20628625.240    84470859.98348
  21753063.520   114313122.158 7  21753063.020    89075147.55847
  22888654.000   120280741.269 7  22888655.980    93725291.17046
  21527583.520   113128346.082 8  21527583.060    88152005.47647
  20489472.500   107672994.925 8  20489472.380    83901068.39648
 14  1 10  0 21  0.0000000  0  7G02G31G25G14G24G12G29
  23121006.760   121501711.108 7  23121003.720    94676643.57246
  23635518.180   124205487.158 7  23635516.480    96783497.75446
  20627237.200   108396931.073 8  20627239.080    84465184.06748
  21757365.360   114335728.377 7  21757364.840    89092762.77347
  22905777.940   120370727.637 7  22905779.740    93795410.40646
  21537226.880   113179022.331 8  21537226.520    88191493.45847
  20480553.800   107626126.517 8  20480553.600    83864547.57548
 14  1 10  0 21 30.0000000  0  7G02G31G25G14G24G12G29
  23121281.640   121503156.180 7  23121278.860    94677769.60846
  23617904.560   124112928.100 7  23617903.220    96711373.85446
  20625893.000   108389867.386 8  20625894.940    84459679.90148
  21761773.640   114358894.142 7  21761773.080    89110814.02347
  22922951.360   120460974.944 7  22922953.300    93865732.97546
  21546896.880   113229837.993 8  21546896.360    88231090.06747
  20471728.980   107579751.147 8  20471728.620    83828410.93148
 14  1 10  0 22  0.0000000  0  7G02G31G25G14G24G12G29
  23121649.640   121505090.251 7  23121647.020    94679276.67446
  23600307.260   124020454.274 7  23600306.220    96639316.34846
  20624590.220   108383021.470 8  20624592.260    84454345.42648
  21766287.800   114382616.150 7  21766287.180    89129298.69047
  22940173.760   120551479.992 7  22940175.860    93936256.36446
  21556593.040   113280790.307 8  21556592.120    88270793.16347
  20462997.480   107533866.603 8  20462997.060    83792656.75748
 14  1 10  0 22 30.0000000  0  7G02G31G25G14G24G12G29
  23122110.840   121507513.526 7  23122108.220    94681164.94946
  23582726.640   123928067.829 7  23582725.800    96567326.93046
  20623328.900   108376393.451 8  20623330.980    84449180.74248
  21770907.640   114406893.190 7  21770907.000    89148215.86047
  22957444.880   120642241.018 7  22957446.980    94006979.24246
  21566314.960   113331878.493 8  21566313.760    88310602.12347
  20454359.500   107488473.903 8  20454359.140    83757285.82848
 14  1 10  0 23  0.0000000  0  7G02G31G25G14G24G12G29
  23122665.720   121510429.017 7  23122662.920    94683436.78746
  23565163.440   123835773.124 7  23565162.800    96495409.01946
  20622109.480   108369985.401 8  20622111.500    84444187.45248
  21775633.240   114431726.330 7  21775632.640    89167566.35046
  22974764.980   120733258.903 7  22974766.960    94077902.27246
  21576063.120   113383105.022 8  21576061.760    88350518.88147
  20445815.560   107443575.626 8  20445815.300    83722300.15448
 14  1 10  0 23 30.0000000  0  7G02G31G25G14G24G12G29
  23123313.860   121513834.945 7  23123310.920    94686090.77346
  23547617.760   123743569.779 7  23547617.160    96423562.28246
  20620931.540   108363795.074 8  20620933.480    84439363.81248
  21780463.940   114457111.901 7  21780463.360    89187347.28847
  22992133.400   120824530.545 7  22992135.420    94149023.01646
  21585837.000   113434466.898 8  21585835.520    88390541.10947
  20437365.460   107399170.358 8  20437365.300    83687698.65548
 14  1 10  0 24  0.0000000  0  7G02G31G25G14G24G12G29
  23124055.440   121517732.634 7  23124052.500    94689127.93746
  23530090.040   123651460.747 7  23530089.440    96351789.02646
  20619795.200   108357823.168 8  20619797.080    84434710.38548
  21785399.720   114483049.484 7  21785399.080    89207558.37447
  23009549.980   120916055.112 7  23009551.980    94220340.84646
  21595636.620   113485964.517 8  21595635.160    88430669.12647
  20429009.500   107355259.534 8  20429009.360    83653482.43048
 14  1 10  0 24 30.0000000  0  7G02G31G25G14G24G12G29
  23124890.600   121522121.695 7  23124887.840    94692547.99946
  23512580.540   123559447.578 7  23512579.980    96280090.49646
  20618700.360   108352069.324 8  20618702.160    84430226.86248
  21790440.240   114509537.456 7  21790439.640    89228198.34647
  23027014.460   121007831.032 7  23027016.240    94291854.55746
  21605461.900   113537597.385 8  21605460.460    88470902.52947
  20420747.660   107311843.130 8  20420747.460    83619651.47048
 14  1 10  0 25  0.0000000  0  7G02G31G25G14G24G12G29
  23125819.640   121527004.114 7  23125817.140    94696352.48146
  23495089.960   123467533.489 7  23495089.360    96208469.15146
  20617647.220   108346534.713 8  20617648.900    84425914.17848
  21795585.520   114536575.825 7  21795584.900    89249267.19647
  23044526.640   121099858.249 7  23044528.500    94363564.04946
  21615313.100   113589366.439 8  21615311.600    88511242.03847
  20412580.280   107268923.109 8  20412580.020    83586207.31048
 14  1 10  0 25 30.0000000  0  7G02G31G25G14G24G12G29
  23126842.440   121532379.392 7  23126840.060    94700541.03146
  23477618.580   123375719.685 7  23477617.820    96136925.92246
  20616635.600   108341218.527 8  20616637.280    84421771.69648
  21800835.080   114564162.533 7  21800834.540    89270763.32447
  23062086.020   121192134.375 7  23062088.280    94435467.50646
  21625190.020   113641270.613 8  21625188.580    88551686.83147
  20404507.340   107226499.431 8  20404507.000    83553149.90148
 14  1 10  0 26  0.0000000  0  7G02G31G25G14G24G12G29
  23127959.200   121538248.689 7  23127956.960    94705114.51546
  23460166.680   123284008.801 7  23460165.780    96065462.92246
  20615665.620   108336121.450 8  20615667.380    84417799.94548
  21806188.760   114592296.598 7  21806188.240    89292685.94347
  23079692.720   121284659.080 7  23079695.140    94507564.68546
  21635092.680   113693309.924 8  21635091.360    88592236.94747
  20396529.060   107184573.213 8  20396528.660    83520480.12648
 14  1 10  0 26 30.0000000  0  7G02G31G25G14G24G12G29
  23129169.820   121544610.934 7  23129167.580    94710072.10446
  23442734.520   123192401.790 7  23442733.520    95994080.85346
  20614737.120   108331242.297 8  20614738.980    84413998.01248
  21811646.100   114620975.384 7  21811645.660    89315033.04547
  23097346.140   121377429.262 6  23097348.740    94579853.13246
  21645020.940   113745483.563 8  21645019.720    88632891.72147
  20388645.220   107143143.667 8  20388644.840    83488197.36948
 14  1 10  0 27  0.0000000  0  7G02G31G25G14G24G12G29
  23130474.260   121551465.616 7  23130471.980    94715413.43146
  23425322.320   123100899.670 7  23425321.180    95922780.51446
  20613849.920   108326579.959 8  20613851.800    84410365.01948
  21817206.640   114650196.602 7  21817206.220    89337802.80347
  23115046.000   121470443.250 7  23115048.860    94652331.54846
  21654974.420   113797789.533 8  21654973.380    88673649.60247
  20380855.760   107102210.225 8  20380855.440    83456301.18148
 14  1 10  0 27 30.0000000  0  7G02G31G25G14G24G12G29
  23131872.640   121558814.115 7  23131870.340    94721139.54346
  23407930.680   123009505.812 7  23407929.240    95851564.52646
  20613004.260   108322135.709 8  20613006.080    84406901.96848
  21822870.480   114679960.130 7  21822870.040    89360995.15447
  23132792.300   121563700.612 7  23132795.320    94724999.61046
  21664953.360   113850229.303 8  21664952.600    88714511.76947
  20373161.060   107061774.776 8  20373160.820    83424793.04348
 14  1 10  0 28  0.0000000  0  7G02G31G25G14G24G12G29
  23133365.020   121566657.316 7  23133362.860    94727251.13846
  23390560.060   122918222.330 7  23390558.360    95780434.53246
  20612200.080   108317909.699 8  20612201.860    84403608.97148
  21828637.260   114710264.398 7  21828636.800    89384608.86047
  23150584.780   121657199.893 7  23150587.760    94797856.17446
  21674957.660   113902802.070 8  21674957.140    88755477.55847
  20365561.240   107021837.828 8  20365561.040    83393673.34648
 14  1 10  0 28 30.0000000  0  7G02G31G25G14G24G12G29
  23134951.260   121574993.996 7  23134949.240    94733747.25446
  23373210.680   122827050.436 7  23373208.780    95709391.50646
  20611437.180   108313900.872 8  20611439.000    84400485.21348
  21834506.560   114741107.192 7  21834506.000    89408642.20147
  23168422.880   121750938.874 7  23168425.780    94870899.53046
  21684987.220   113955507.259 8  21684986.820    88796546.53447
  20358056.260   106982398.945 8  20358056.080    83362941.75248
 14  1 10  0 29  0.0000000  0  7G02G31G25G14G24G12G29
  23136631.980   121583826.615 7  23136629.980    94740629.84146
  23355883.180   122735993.738 7  23355881.260    95638438.23946
  20610716.000   108310111.195 8  20610717.860    84397532.21048
  21840478.360   114772488.790 7  21840477.740    89433095.37847
  23186306.660   121844918.010 7  23186309.280    94944130.01846
  21695042.340   114008346.426 8  21695041.840    88837719.90047
  20350646.560   106943460.249 8  20350646.340    83332599.92148
 14  1 10  0 29 30.0000000  0  7G02G31G25G14G24G12G29
  23138406.960   121593154.259 7  23138404.900    94747898.16146
  23338577.960   122645053.988 7  23338576.040    95567576.09946
  20610036.420   108306540.067 8  20610038.320    84394749.51948
  21846552.260   114804407.276 7  21846551.540    89457966.92447
  23204235.720   121939135.365 7  23204238.160    95017546.13446
  21705122.780   114061318.623 8  21705122.160    88878996.92947
  20343332.060   106905021.719 8  20343331.760    83302647.81848
 14  1 10  0 30  0.0000000  0  7G02G31G25G14G24G12G29
  23140276.200   121602976.727 7  23140274.220    94755552.04347
  23321295.080   122554232.361 7  23321293.320    95496806.03046
  20609398.280   108303186.653 8  20609400.200    84392136.46548
  21852727.760   114836859.939 7  21852727.080    89483254.69547
  23222209.660   122033588.889 7  23222212.040    95091146.24846
  21715228.120   114114422.128 8  21715227.460    88920376.27547
  20336112.660   106867082.891 8  20336112.340    83273085.10148
 14  1 10  0 30 30.0000000  0  7G02G31G25G14G24G12G29
  23142239.560   121613294.284 7  23142237.820    94763591.69846
  23304035.140   122463531.208 7  23304033.480    95426129.81146
  20608801.600   108300050.966 8  20608803.520    84389693.07248
  21859004.620   114869845.248 7  21859003.900    89508957.51446
  23240228.260   122128277.140 7  23240230.540    95164929.29046
  21725358.480   114167657.111 8  21725357.640    88961858.08147
  20328988.320   106829644.218 8  20328988.040    83243912.10948
 14  1 10  0 31  0.0000000  0  7G02G31G25G14G24G12G29
  23144297.020   121624106.452 7  23144295.340    94772016.77046
  23286798.340   122372951.846 7  23286796.840    95355548.50446
  20608246.220   108297132.482 8  20608248.120    84387418.93748
  21865382.520   114903361.389 7  21865381.840    89535073.98147
  23258291.140   122223198.107 7  23258293.380    95238893.67446
  21735513.760   114221023.536 8  21735512.760    89003442.30047
  20321959.080   106792705.544 8  20321958.860    83215128.72948
 14  1 10  0 31 30.0000000  0  7G02G31G25G14G24G12G29
  23146448.440   121635412.177 7  23146446.780    94780826.43446
  23269584.920   122282495.376 7  23269583.620    95285062.97846
  20607731.940   108294430.140 8  20607733.840    84385313.21448
  21871860.860   114937405.321 7  21871860.200    89561601.69947
  23276397.820   122318349.229 7  23276400.040    95313037.38546
  21745693.700   114274519.440 8  21745692.560    89045127.39547
  20315024.780   106756265.880 8  20315024.580    83186734.19448
 14  1 10  0 32  0.0000000  0  7G02G31G25G14G24G12G29
  23148694.600   121647216.111 7  23148692.840    94790024.31746
  23252396.060   122192168.316 7  23252395.000    95214678.28046
  20607259.640   108291948.468 8  20607261.560    84383379.44648
  21878440.160   114971980.157 7  21878439.620    89588543.12347
  23294548.780   122413733.315 7  23294551.040    95387362.62846
  21755899.000   114328148.808 8  21755897.740    89086916.51747
  20308186.440   106720330.274 8  20308186.200    83158732.41648
 14  1 10  0 32 30.0000000  0  7G02G31G25G14G24G12G29
  23151034.500   121659512.639 7  23151032.660    94799606.03346
  23235231.200   122101967.080 7  23235230.180    95144391.58946
  20606828.280   108289681.601 8  20606830.160    84381613.05248
  21885119.100   115007078.182 7  21885118.540    89615892.21747
  23312742.800   122509343.212 7  23312744.960    95461863.83546
  21766128.540   114381906.095 8  21766127.200    89128805.30047
  20301442.940   106684892.921 8  20301442.640    83131118.89948
 14  1 10  0 33  0.0000000  0  7G02G31G25G14G24G12G29
  23153468.880   121672305.182 7  23153466.860    94809574.26346
  23218091.220   122011896.875 7  23218090.380    95074207.05746
  20606438.460   108287632.931 8  20606440.200    84380016.68148
  21891897.900   115042701.040 7  21891897.400    89643650.28247
  23330980.280   122605181.026 7  23330982.300    95536542.64446
  21776382.800   114435793.925 8  21776381.660    89170795.81047
  20294794.940   106649957.329 8  20294794.600    83103896.36448
 14  1 10  0 33 30.0000000  0  7G02G31G25G14G24G12G29
  23155997.200   121685591.410 7  23155995.060    94819927.17646
  23200976.380   121921958.031 7  23200975.520    95004124.84946
  20606089.760   108285800.408 8  20606091.400    84378588.73348
  21898775.840   115078844.709 7  21898775.340    89671814.17246
  23349260.400   122701242.830 7  23349262.260    95611395.98846
  21786661.580   114489810.074 8  21786660.600    89212886.31447
  20288242.080   106615521.949 8  20288241.760    83077063.59848
 14  1 10  0 34  0.0000000  0  7G02G31G25G14G24G12G29
  23158619.920   121699373.684 7  23158617.700    94830666.62046
  23183887.360   121832154.625 7  23183886.340    94934148.18746
  20605782.620   108284186.242 8  20605784.300    84377330.94448
  21905753.060   115115509.974 7  21905752.620    89700384.49846
  23367583.280   122797529.794 7  23367585.140    95686424.77446
  21796965.120   114543956.273 8  21796964.240    89255078.13547
  20281784.880   106581589.047 8  20281784.540    83050622.37848
 14  1 10  0 34 30.0000000  0  7G02G31G25G14G24G12G29
  23161336.920   121713651.489 7  23161334.600    94841792.18746
  23166824.480   121742488.196 7  23166823.280    94864278.25746
  20605516.880   108282789.837 8  20605518.640    84376242.83848
  21912829.080   115152694.353 7  21912828.580    89729359.32846
  23385948.420   122894039.629 6  23385950.460    95761627.23746
  21807293.580   114598232.631 8  21807292.680    89297371.39047
  20275423.260   106548158.424 8  20275422.900    83024572.54448
 14  1 10  0 35  0.0000000  0  7G02G31G25G14G24G12G29
  23164148.160   121728424.200 7  23164145.540    94853303.39946
  23149788.040   121652960.535 7  23149786.720    94794516.45346
  20605292.500   108281610.728 8  20605294.280    84375324.04848
  21920003.440   115190395.590 7  21920002.940    89758736.90646
  23404355.440   122990770.147 6  23404357.680    95837001.66346
  21817646.680   114652637.976 8  21817645.700    89339765.15847
  20269157.140   106515229.442 8  20269156.700    82998913.59948
 14  1 10  0 35 30.0000000  0  7G02G31G25G14G24G12G29
  23167053.800   121743692.488 7  23167050.780    94865200.77846
  23132778.500   121563574.791 7  23132777.160    94724865.22446
  20605109.640   108280649.829 8  20605111.440    84374575.29548
  21927275.940   115228612.715 7  21927275.460    89788516.46546
  23422804.340   123087720.795 6  23422806.860    95912547.62346
  21828024.360   114707172.385 8  21828023.320    89382259.48847
  20262986.700   106482803.561 8  20262986.260    82973646.67748
 14  1 10  0 36  0.0000000  0  7G02G31G25G14G24G12G29
  23170053.440   121759454.741 7  23170050.100    94877483.06146
  23115796.000   121474330.839 7  23115794.680    94655324.50446
  20604968.000   108279905.304 8  20604969.760    84373995.13948
  21934645.860   115267341.924 7  21934645.340    89818695.05546
  23441294.520   123184888.088 6  23441297.320    95988262.37846
  21838426.420   114761834.234 8  21838425.280    89424853.12247
  20256911.560   106450878.585 8  20256911.140    82948770.07848
 14  1 10  0 36 30.0000000  0  7G02G31G25G14G24G12G29
  23173147.180   121775711.172 7  23173143.440    94890150.42446
  23098840.980   121385231.526 7  23098839.700    94585896.47746
  20604867.660   108279377.808 8  20604869.420    84373584.10448
  21942113.000   115306582.086 7  21942112.360    89849271.79746
  23459825.960   123282271.617 6  23459828.760    96064145.62346
  21848852.740   114816623.570 8  21848851.400    89467546.11047
  20250931.920   106419455.412 8  20250931.560    82924284.48848
 14  1 10  0 37  0.0000000  0  7G02G31G25G14G24G12G29
  23176335.000   121792462.141 7  23176330.980    94903203.13046
  23081914.060   121296279.840 7  23081912.880    94516583.48746
  20604808.620   108279067.525 8  20604810.360    84373342.32548
  21949677.060   115346331.558 7  21949676.440    89880245.39746
  23478398.300   123379869.552 6  23478401.020    96140195.96846
  21859303.440   114871541.163 8  21859301.940    89510339.02147
  20245047.800   106388534.066 8  20245047.500    82900189.93548
 14  1 10  0 37 30.0000000  0  7G02G31G25G14G24G12G29
  23179616.640   121809706.375 7  23179612.420    94916640.22146
  23065015.220   121207475.760 7  23065014.060    94447385.53146
  20604790.660   108278973.281 8  20604792.400    84373268.88648
  21957337.480   115386587.263 7  21957336.880    89911613.45846
  23497011.040   123477679.179 6  23497013.640    96216411.25346
  21869778.060   114926585.077 8  21869776.660    89553230.37847
  20239259.020   106358113.758 8  20239258.680    82876485.80648
 14  1 10  0 38  0.0000000  0  7G02G31G25G14G24G12G29
  23182992.560   121827446.951 7  23182988.420    94930464.04346
  23048145.620   121118825.545 7  23048144.480    94378307.44246
  20604814.520   108279098.913 8  20604816.200    84373366.77148
  21965094.480   115427350.692 7  21965093.960    89943377.16146
  23515664.340   123575702.467 6  23515666.900    96292793.01746
  21880277.120   114981758.333 8  21880275.980    89596222.51347
  20233566.300   106328198.231 8  20233565.920    82853175.01248
 14  1 10  0 38 30.0000000  0  7G02G31G25G14G24G12G29
  23186462.500   121845681.830 7  23186458.440    94944673.02946
  23031305.320   121030329.431 7  23031304.240    94309349.44146
  20604879.820   108279442.290 8  20604881.500    84373634.33448
  21972947.460   115468618.049 7  21972946.940    89975533.53746
  23534357.560   123673936.219 6  23534360.060    96369338.78446
  21890800.400   115037059.197 8  21890799.460    89639314.08547
  20227969.180   106298785.351 8  20227968.820    82830255.89248
 14  1 10  0 39  0.0000000  0  7G02G31G25G14G24G12G29
  23190026.360   121864410.172 7  23190022.220    94959266.54946
  23014494.600   120941988.948 7  23014493.520    94240512.69746
  20604986.460   108280002.937 8  20604988.220    84374071.20548
  21980895.820   115510386.813 7  21980895.360    90008080.61946
  23553090.300   123772378.118 6  23553092.940    96446046.75946
  21901347.820   115092486.994 8  21901347.000    89682504.56247
  20222467.600   106269874.595 8  20222467.240    82807728.03448
 14  1 10  0 39 30.0000000  0  7G02G31G25G14G24G12G29
  23193684.000   121883631.307 7  23193679.920    94974244.06546
  22997713.860   120853805.593 7  22997712.740    94171798.39246
  20605134.440   108280780.314 8  20605136.160    84374676.94848
  21988939.000   115552653.978 7  21988938.520    90041016.06246
  23571862.340   123871026.061 6  23571865.120    96522915.26846
  21911919.340   115148040.985 8  21911918.540    89725793.37447
  20217061.460   106241465.505 8  20217061.120    82785591.09048
 14  1 10  0 40  0.0000000  0  7G02G31G25G14G24G12G29
  23197435.560   121903345.922 7  23197431.420    94989606.12546
  22980963.580   120765782.467 7  22980962.540    94103208.97646
  20605323.880   108281775.397 8  20605325.560    84375452.34148
  21997076.840   115595419.010 7  21997076.420    90074339.45346
  23590673.460   123969879.064 6  23590676.280    96599943.57046
  21922514.940   115203721.467 8  21922514.080    89769180.75947
  20211750.900   106213558.629 8  20211750.660    82763845.48048
 14  1 10  0 40 30.0000000  0  7G02G31G25G14G24G12G29
  23201281.040   121923554.724 7  23201277.020    95005353.26246
  22964244.420   120677922.875 7  22964243.300    94034746.95846
  20605554.900   108282989.300 8  20605556.660    84376398.23148
  22005309.160   115638680.682 7  22005308.800    90108049.84346
  23609523.580   124068937.129 6  23609526.420    96677131.66246
  21933134.740   115259529.544 7  21933133.900    89812667.55047
  20206536.220   106186155.337 8  20206536.000    82742492.26848
 14  1 10  0 41  0.0000000  0  7G02G31G25G14G24G12G29
  23205220.220   121944256.043 7  23205216.400    95021484.17846
  22947556.480   120590227.670 7  22947555.400    93966413.05347
  20605827.240   108284420.399 8  20605829.020    84377513.37148
  22013635.400   115682435.368 7  22013634.900    90142144.39846
  23628411.880   124168196.257 6  23628414.840    96754476.44346
  21943778.460   115315463.514 7  21943777.660    89856252.44747
  20201417.060   106159253.836 8  20201416.840    82721530.05748
 14  1 10  0 41 30.0000000  0  7G02G31G25G14G24G12G29
  23209252.740   121965448.150 7  23209249.220    95037997.51546
  22930899.960   120502697.556 7  22930898.980    93898207.78846
  20606140.700   108286067.608 8  20606142.460    84378796.91048
  22022054.920   115726679.690 7  22022054.320    90176620.47746
  23647338.120   124267654.220 6  23647341.000    96831976.14046
  21954445.660   115371521.032 7  21954445.080    89899933.61747
  20196393.080   106132852.535 8  20196392.820    82700957.61948
 14  1 10  0 42  0.0000000  0  7G02G31G25G14G24G12G29
  23213379.080   121987133.664 7  23213376.020    95054895.31546
  22914275.920   120415338.022 7  22914274.880    93830135.42046
  20606495.840   108287934.094 8  20606497.640    84380251.31748
  22030567.900   115771414.824 7  22030567.280    90211479.02146
  23666302.440   124367312.612 6  23666305.160    96909632.01646
  21965137.260   115427706.560 7  21965136.880    89943714.53047
  20191464.900   106106954.743 8  20191464.600    82680777.52348
 14  1 10  0 42 30.0000000  0  7G02G31G25G14G24G12G29
  23217599.020   122009310.838 7  23217596.320    95072176.22246
  22897684.380   120328149.059 7  22897683.340    93762195.97446
  20606892.420   108290018.241 8  20606894.260    84381875.32448
  22039173.380   115816636.651 7  22039172.780    90246716.77946
  23685304.220   124467167.892 6  23685306.920    96987441.30546
  21975852.960   115484017.844 8  21975852.560    89987593.43247
  20186632.200   106081558.591 8  20186631.860    82660988.32048
 14  1 10  0 43  0.0000000  0  7G02G31G25G14G24G12G29
  23221912.360   122031978.641 7  23221910.020    95089839.46246
  22881125.720   120241132.679 7  22881124.640    93694391.00746
  20607330.320   108292319.597 8  20607332.220    84383668.59048
  22047870.940   115862342.711 7  22047870.340    90282331.87446
  23704343.120   124567217.829 6  23704345.760    97065402.28446
  21986592.460   115540453.751 7  21986591.880    90031569.45747
  20181894.800   106056663.208 8  20181894.420    82641589.32648
 14  1 10  0 43 30.0000000  0  7G02G31G25G14G24G12G29
  23226318.800   122055135.341 7  23226316.820    95107883.64846
  22864600.180   120154289.931 7  22864599.100    93626721.36046
  20607809.360   108294837.006 8  20607811.360    84385630.21248
  22056659.960   115908529.646 7  22056659.400    90318321.68846
  23723418.480   124667459.678 6  23723421.100    97143512.79546
  21997355.260   115597012.510 7  21997354.520    90075641.20347
  20177252.460   106032267.441 8  20177252.040    82622579.63848
 14  1 10  0 44  0.0000000  0  7G02G31G25G14G24G12G29
  23230819.060   122078784.330 7  23230817.140    95126311.44846
  22848108.740   120067626.440 7  22848107.620    93559191.37946
  20608330.220   108297573.984 8  20608332.220    84387762.91748
  22065540.720   115955198.620 7  22065540.220    90354687.11246
  23742530.700   124767895.361 6  23742533.340    97221774.34846
  22008142.200   115653698.181 7  22008141.400    90119811.83347
  20172705.740   106008374.366 8  20172705.360    82603961.66148
 14  1 10  0 44 30.0000000  0  7G02G31G25G14G24G12G29
  23235412.400   122102922.474 7  23235410.520    95145120.40746
  22831651.340   119981142.051 7  22831650.160    93491800.95846
  20608892.480   108300528.351 8  20608894.380    84390065.01648
  22074512.380   116002345.180 7  22074511.900    90391424.66046
  23761679.080   124868520.785 6  23761681.780    97300183.76346
  22018952.900   115710508.306 8  22018952.140    90164079.44347
  20168254.240   105984981.662 8  20168253.920    82585733.58248
 14  1 10  0 45  0.0000000  0  7G02G31G25G14G24G12G29
  23240098.660   122127549.318 7  23240096.920    95164310.14346
  22815228.440   119894838.901 7  22815227.160    93424551.76246
  20609496.020   108303699.902 8  20609497.920    84392536.35648
  22083574.620   116049966.976 7  22083574.100    90428532.53346
  23780863.220   124969334.118 6  23780866.000    97378739.57746
  22029787.300   115767442.412 8  22029786.440    90208443.65647
  20163897.880   105962088.896 8  20163897.580    82567895.06848
 14  1 10  0 45 30.0000000  0  7G02G31G25G14G24G12G29
  23244878.120   122152665.710 7  23244876.480    95183881.34846
  22798840.680   119808720.530 7  22798839.320    93357446.53946
  20610141.120   108307090.036 8  20610143.040    84395178.02148
  22092727.140   116098062.958 7  22092726.600    90466009.91346
  23800083.180   125070335.101 6  23800085.880    97457441.63146
  22040645.420   115824500.675 8  22040644.240    90252904.63047
  20159636.860   105939696.899 8  20159636.500    82550446.75848
 14  1 10  0 46  0.0000000  0  7G02G31G25G14G24G12G29
  23249750.380   122178269.075 7  23249748.780    95203832.01646
  22782488.180   119722787.200 7  22782486.720    93290485.49647
  20610827.520   108310696.911 8  20610829.340    84397988.56548
  22101969.040   116146629.008 7  22101968.420    90503853.57246
  23819338.180   125171520.207 6  23819340.760    97536287.18746
  22051526.900   115881681.912 8  22051525.500    90297461.42247
  20155470.700   105917803.525 8  20155470.300    82533386.99248
 14  1 10  0 46 30.0000000  0  7G02G31G25G14G24G12G29
  23254715.660   122204359.956 7  23254713.900    95224162.59146
  22766171.500   119637041.901 7  22766169.980    93223670.97946
  20611555.340   108314521.625 8  20611557.160    84400968.86248
  22111300.060   116195663.969 7  22111299.500    90542062.61746
  23838627.940   125272888.168 6  23838630.340    97615275.19346
  22062431.860   115938987.272 7  22062430.440    90342114.92747
  20151399.520   105896409.427 8  20151399.140    82516716.26448
 14  1 10  0 47  0.0000000  0  7G02G31G25G14G24G12G29
  23259773.920   122230939.870 7  23259772.020    95244874.21446
  22749891.440   119551489.364 7  22749889.900    93157006.66447
  20612325.000   108318566.274 8  20612326.840    84404120.54248
  22120720.180   116245167.502 7  22120719.740    90580636.77946
  23857952.600   125374439.482 6  23857954.960    97694406.07146
  22073360.580   115996417.883 8  22073359.260    90386866.03047
  20147423.680   105875516.412 8  20147423.400    82500435.99748
 14  1 10  0 47 30.0000000  0  7G02G31G25G14G24G12G29
  23264924.940   122258008.025 7  23264922.900    95265966.28346
  22733648.260   119466131.378 7  22733646.840    93090493.98147
  20613136.580   108322830.866 8  20613138.340    84407443.59348
  22130229.000   116295137.006 7  22130228.620    90619574.03946
  23877311.840   125476172.609 6  23877314.080    97773678.60346
  22084313.100   116053973.991 7  22084311.920    90431714.92247
  20143543.200   105855124.399 8  20143542.980    82484546.11548
 14  1 10  0 48  0.0000000  0  8G02G31G21G25G14G24G12G29
  23270168.680   122285563.213 7  23270166.360    95287437.86446
  22717442.480   119380969.511 7  22717441.120    93024134.08347
  24687816.680   129735363.254 6  24687817.340   101092505.50345
  20613989.780   108327314.762 8  20613991.520    84410937.53248
  22139826.000   116345569.521 7  22139825.560    90658872.08646
  23896705.100   125578084.857 6  23896707.380    97853090.73846
  22095289.200   116111654.760 7  22095288.180    90476660.96247
  20139757.800   105835231.967 8  20139757.560    82469045.52348
 14  1 10  0 48 30.0000000  0  8G02G31G21G25G14G24G12G29
  23275504.260   122313600.995 7  23275501.460    95309285.49946
  22701273.680   119296002.240 7  22701272.440    92957925.83646
  24670121.020   129642374.083 6  24670122.500   101020046.70343
  20614884.020   108332014.280 8  20614885.800    84414599.49048
  22149509.960   116396459.056 7  22149509.500    90698526.24146
  23916131.420   125680171.092 6  23916133.720    97932638.47446
  22106288.220   116169455.796 7  22106287.280    90521700.72747
  20136066.660   105815834.901 8  20136066.400    82453930.92548
 14  1 10  0 49  0.0000000  0  8G02G31G21G25G14G24G12G29
  23280931.880   122342122.537 7  23280928.680    95331510.09546
  22685142.680   119211233.382 7  22685141.500    92891872.17846
  24652418.420   129549346.415 6  24652419.920   100947557.89445
  20615819.700   108336931.088 8  20615821.480    84418430.76748
  22159280.740   116447804.723 7  22159280.340    90738535.83146
  23935590.860   125782430.932 6  23935593.200    98012321.44445
  22117310.580   116227378.589 8  22117309.640    90566835.34847
  20132470.020   105796934.385 8  20132469.700    82439203.25748
 14  1 10  0 49 30.0000000  0  8G02G31G21G25G14G24G12G29
  23286452.040   122371130.840 7  23286448.520    95354113.99246
  22669050.520   119126669.043 7  22669049.500    92825977.89946
  24634709.660   129456286.106 6  24634710.880   100875043.64044
  20616797.400   108342069.039 8  20616799.200    84422434.36348
  22169138.500   116499607.625 7  22169138.180    90778901.71846
  23955083.860   125884866.726 6  23955086.280    98092141.48846
  22128356.800   116285427.033 7  22128356.020    90612067.87347
  20128968.520   105778533.902 8  20128968.120    82424865.22148
 14  1 10  0 50  0.0000000  0  8G02G31G21G25G14G24G12G29
  23292064.180   122400622.840 7  23292060.460    95377094.77246
  22652997.280   119042309.208 7  22652996.360    92760242.96047
  24616994.660   129363193.705 6  24616995.680   100802504.29745
  20617816.720   108347425.943 8  20617818.620    84426608.56648
  22179082.380   116551863.141 7  22179082.140    90819620.27746
  23974609.560   125987474.050 6  23974611.880    98172095.23445
  22139426.380   116343598.591 7  22139425.800    90657396.33347
  20125561.700   105760630.832 8  20125561.240    82410914.78248
 14  1 10  0 50 30.0000000  0  8G02G31G21G25G14G24G12G29
  23297768.220   122430597.494 7  23297764.420    95400451.64746
  22636983.300   118958155.679 7  22636982.420    92694668.79247
  24599273.820   129270070.990 6  24599274.660   100729941.41045
  20618877.700   108353001.612 8  20618879.660    84430953.23448
  22189111.980   116604568.910 7  22189111.760    90860689.70646
  23994167.560   126090250.851 6  23994169.660    98252181.06446
  22150519.340   116401892.810 7  22150518.760    90702820.38547
  20122249.400   105743224.402 8  20122248.900    82397351.33248
 14  1 10  0 51  0.0000000  0  8G02G31G21G25G14G24G12G29
  23303564.180   122461055.259 7  23303560.320    95424184.96846
  22621009.200   118874211.422 7  22621008.240    92629257.69547
  24581547.800   129176921.032 6  24581548.480   100657357.25344
  20619980.520   108358796.915 8  20619982.540    84435469.05148
  22199226.780   116657722.908 7  22199226.580    90902108.39346
  24013757.560   126193196.423 6  24013759.600    98332398.40146
  22161635.860   116460310.774 7  22161635.200    90748340.85747
  20119031.580   105726314.570 8  20119031.080    82384174.84048
 14  1 10  0 51 30.0000000  0  8G02G31G21G25G14G24G12G29
  23309451.660   122491994.793 7  23309447.940    95448293.70046
  22605075.440   118790478.888 7  22605074.320    92564011.57447
  24563816.800   129083745.727 6  24563817.620   100584753.35744
  20621125.180   108364811.915 8  20621127.160    84440156.05848
  22209426.460   116711322.822 7  22209426.280    90943874.55446
  24033379.280   126296309.368 6  24033381.420    98412746.11145
  22172775.880   116518851.856 7  22172775.180    90793957.24347
  20115908.200   105709901.153 8  20115907.720    82371385.16848
 14  1 10  0 52  0.0000000  0  8G02G31G21G25G14G24G12G29
  23315430.660   122523415.491 7  23315426.920    95472777.36546
  22589182.460   118706960.294 7  22589181.240    92498932.16747
  24546081.260   128990547.802 6  24546082.680   100512131.80445
  20622311.640   108371046.589 8  20622313.560    84445014.24148
  22219710.640   116765366.111 7  22219710.380    90985986.20446
  24053032.280   126399587.205 6  24053034.480    98493222.35045
  22183939.400   116577515.914 7  22183938.540    90839669.47147
  20112879.100   105693983.374 8  20112878.660    82358981.70748
 14  1 10  0 52 30.0000000  0  8G02G31G21G25G14G24G12G29
  23321501.320   122555317.965 7  23321497.420    95497636.46846
  22573330.700   118623658.780 7  22573329.420    92434021.91147
  24528341.880   128897330.225 6  24528343.600   100439494.93845
  20623540.180   108377502.400 8  20623542.040    84450044.73948
  22230078.900   116819851.368 7  22230078.520    91028442.21946
  24072716.480   126503029.092 6  24072718.800    98573826.38946
  22195126.520   116636303.704 7  22195125.440    90885478.11047
  20109944.520   105678562.066 8  20109944.100    82346965.10448
 14  1 10  0 53  0.0000000  0  8G02G31G21G25G14G24G12G29
  23327662.840   122587697.938 7  23327658.820    95522867.64546
  22557520.100   118540573.443 7  22557518.780    92369280.09847
  24510599.020   128804093.289 6  24510600.820   100366842.99345
  20624810.160   108384175.988 8  20624812.020    84455244.92548
  22240530.140   116874772.687 7  22240529.700    91071238.03346
  24092431.020   126606630.277 6  24092433.460    98654554.57546
  22206336.560   116695212.074 7  22206335.340    90931380.71147
  20107103.580   105663632.807 8  20107103.200    82335331.91848
 14  1 10  0 53 30.0000000  0  8G02G31G21G25G14G24G12G29
  23333915.340   122620555.885 7  23333911.360    95548471.27946
  22541751.300   118457707.729 7  22541749.960    92304709.43047
  24492853.160   128710839.839 6  24492854.700   100294178.17444
  20626121.920   108391068.850 8  20626123.720    84460615.97648
  22251064.160   116930128.978 7  22251063.680    91114372.79846
  24112175.980   126710390.931 6  24112178.380    98735407.00646
  22217569.700   116754242.473 7  22217568.480    90977378.39447
  20104356.560   105649197.114 8  20104356.220    82324083.32848
 14  1 10  0 54  0.0000000  0  8G02G31G21G25G14G24G12G29
  23340258.840   122653892.727 7  23340255.420    95574448.02246
  22526025.080   118375065.783 7  22526023.620    92240313.11247
  24475105.080   128617574.019 6  24475106.360   100221503.63745
  20627475.700   108398182.747 8  20627477.400    84466159.26648
  22261680.760   116985919.359 7  22261680.240    91157845.80646
  24131951.100   126814309.962 6  24131953.580    98816382.87045
  22228826.360   116813396.403 7  22228825.160    91023472.34147
  20101703.680   105635255.954 8  20101703.300    82313220.09148
 14  1 10  0 54 30.0000000  0  8G02G31G21G25G14G24G12G29
  23346692.940   122687706.581 7  23346690.320    95600796.46046
  22510341.740   118292649.014 7  22510340.200    92176092.25247
  24457354.880   128524297.092 6  24457356.100   100148820.52045
  20628871.260   108405516.787 8  20628872.980    84471874.09248
  22272379.180   117042140.025 7  22272378.740    91201654.11546
  24151755.680   126918385.156 6  24151758.500    98897480.40845
  22240106.140   116872671.902 7  22240104.980    91069661.00947
  20099144.600   105621807.580 8  20099144.120    82302740.83648
 14  1 10  0 55  0.0000000  0  8G02G31G21G25G14G24G12G29
  23353217.440   122721994.854 7  23353215.320    95627514.56846
  22494701.400   118210457.787 7  22494699.780    92112047.15047
  24439602.720   128431009.747 6  24439603.860   100076129.26145
  20630308.440   108413069.348 8  20630310.280    84477759.20348
  22283158.660   117098786.929 7  22283158.300    91245794.55346
  24171589.380   127022612.599 6  24171592.360    98978696.58546
  22251408.820   116932067.981 7  22251407.640    91115943.62347
  20096678.740   105608849.519 8  20096678.260    82292643.65248
 14  1 10  0 55 30.0000000  0  8G02G31G21G25G14G24G12G29
  23359832.760   122756758.866 7  23359830.780    95654603.40146
  22479104.660   118128496.484 7  22479103.080    92048181.22047
  24421849.480   128337716.433 6  24421850.420   100003433.30745
  20631787.680   108420842.911 8  20631789.580    84483816.51748
  22294019.200   117155859.946 7  22294019.020    91290267.03246
  24191452.240   127126992.935 6  24191455.140    99060031.89545
  22262735.000   116991586.770 7  22262733.620    91162321.88647
  20094306.500   105596383.448 8  20094306.000    82282929.83448
 14  1 10  0 56  0.0000000  0  8G02G31G21G25G14G24G12G29
  23366538.200   122791995.485 7  23366536.180    95682060.50246
  22463551.700   118046765.385 7  22463550.180    91984494.64747
