     2.11           OBSERVATION DATA    G (GPS)             RINEX VERSION / TYPE
teqc  2015Nov6      RinexTools-CRAAG    20161009 23:03:49UTCPGM / RUN BY / DATE
Linux2.4.20-8|i386|gcc|Win32-MinGW32|=                      COMMENT
BIT 2 OF LLI FLAGS DATA COLLECTED UNDER A/S CONDITION       COMMENT
ABZH                                                        MARKER NAME
ABZH                                                        MARKER NUMBER
-Unknown-           C.R.A.A.G.                              OBSERVER / AGENCY
462405              LEICA GRX1200PRO    8.20/2.127          REC # / TYPE / VERS
                    LEIAT504        NONE                    ANT # / TYPE
  5106715.6603   270605.8996  3799527.8127                  APPROX POSITION XYZ
        0.0770        0.0000        0.0000                  ANTENNA: DELTA H/E/N
     1     1                                                WAVELENGTH FACT L1/2
     6    L1    L2    C1    P2    S1    S2                  # / TYPES OF OBSERV
    30.0000                                                 INTERVAL
SPIDER                                                      COMMENT
Made by Spider v4.0.0                                       COMMENT
Project creator:                                            COMMENT
                                                            COMMENT
 SNR is mapped to RINEX snr flag value [0-9]                COMMENT
  L1 & L2: min(max(int(snr_dBHz/6), 0), 9)                  COMMENT
teqc edited: all GLONASS satellites excluded                COMMENT
  2014     1    10     0     0    0.0000000     GPS         TIME OF FIRST OBS
                                                            END OF HEADER
 14  1 10  0  0  0.0000000  0  7G02G31G25G14G24G12G29
 121874876.563 7  94967421.32446  23192018.320    23192015.640          45.000
        40.000
 128147359.912 6  99855086.17645  24385632.520    24385631.740          41.250
        32.000
 108893676.565 8  84852258.45848  20721765.060    20721766.600          50.250
        48.500
 113879354.000 7  88737146.69147  21670519.980    21670519.300          47.750
        42.750
 116830665.164 7  91036920.56847  22232125.660    22232128.220          45.500
        44.000
 111175600.830 8  86630386.06547  21155988.480    21155987.680          49.750
        47.250
 110007747.912 8  85720356.03648  20933761.760    20933761.360          49.750
        48.000
 14  1 10  0  0 30.0000000  0  7G02G31G25G14G24G12G29
 121856395.100 7  94953020.21146  23188501.380    23188498.780          44.500
        40.500
 128052766.112 6  99781376.75045  24367631.800    24367630.880          41.500
        35.250
 108877250.580 8  84839458.98548  20718639.260    20718640.860          50.000
        48.250
 113878287.264 7  88736315.46847  21670317.120    21670316.320          47.500
        43.750
 116908935.998 7  91097910.82047  22247020.100    22247022.740          45.750
        43.750
 111220174.004 8  86665118.40247  21164470.460    21164469.640          49.750
        47.250
 109941482.414 8  85668720.59448  20921151.840    20921151.460          49.500
        48.250
 14  1 10  0  1  0.0000000  0  7G02G31G25G14G24G12G29
 121838369.253 7  94938974.11146  23185071.080    23185068.660          44.500
        40.000
 127958188.325 7  99707679.81645  24349634.160    24349633.040          42.500
        31.750
 108861053.906 8  84826838.20448  20715557.040    20715558.760          50.000
        48.500
 113877810.233 7  88735943.75047  21670226.380    21670225.540          47.500
        43.500
 116987516.291 7  91159142.20547  22261973.480    22261976.180          45.750
        43.500
 111264909.509 8  86699977.23747  21172983.280    21172982.400          49.500
        47.000
 109875669.123 8  85617437.52248  20908627.920    20908627.640          49.500
        48.250
 14  1 10  0  1 30.0000000  0  7G02G31G25G14G24G12G29
 121820798.761 7  94925282.83546  23181727.360    23181725.060          43.750
        40.500
 127863626.807 7  99633995.54346  24331639.600    24331638.360          42.750
        36.500
 108845084.828 8  84814394.77148  20712518.120    20712519.980          50.000
        48.750
 113877921.527 7  88736030.46647  21670247.580    21670246.720          47.500
        43.250
 117066404.048 7  91220613.18747  22276985.440    22276988.100          45.500
        44.000
 111309806.054 8  86734961.55447  21181526.780    21181525.820          49.500
        47.250
 109810308.358 8  85566507.05548  20896190.060    20896189.900          49.500
        48.000
 14  1 10  0  2  0.0000000  0  7G02G31G25G14G24G12G29
 121803684.041 7  94911946.71846  23178470.540    23178468.140          44.500
        40.500
 127769082.216 7  99560324.45846  24313648.300    24313647.080          42.750
        36.500
 108829342.148 8  84802127.74948  20709522.340    20709524.300          50.000
        48.750
 113878620.405 7  88736575.03847  21670380.560    21670379.760          47.500
        43.250
 117145596.928 7  91282321.91847  22292055.320    22292057.980          45.750
        43.500
 111354861.362 8  86770069.57647  21190100.540    21190099.520          49.500
        47.000
 109745400.396 8  85515929.42748  20883838.360    20883838.280          49.500
        48.250
 14  1 10  0  2 30.0000000  0  7G02G31G25G14G24G12G29
 121787027.365 7  94898967.51046  23175300.880    23175298.300          44.750
        39.750
 127674557.203 7  99486668.64446  24295660.680    24295659.560          42.750
        37.500
 108813826.669 8  84790037.76848  20706569.840    20706571.760          50.000
        48.750
 113879907.045 7  88737577.61047  21670625.480    21670624.640          47.750
        43.000
 117225095.112 7  91344268.55147  22307183.340    22307185.920          45.750
        43.000
 111400075.832 8  86805301.62847  21198704.620    21198703.520          49.500
        47.000
 109680947.304 8  85465706.25148  20871573.320    20871573.240          49.500
        48.000
 14  1 10  0  3  0.0000000  0  7G02G31G25G14G24G12G29
 121770829.769 7  94886346.02446  23172218.620    23172215.900          44.500
        40.000
 127580052.965 7  99413028.99746  24277677.020    24277675.960          42.750
        36.500
 108798537.873 8  84778124.41948  20703660.520    20703662.380          50.000
        48.750
 113881781.146 7  88739037.93647  21670982.120    21670981.280          47.500
        43.250
 117304897.455 7  91406452.18347  22322369.240    22322371.740          45.750
        43.500
 111445448.635 8  86840657.05447  21207338.780    21207337.600          49.500
        46.750
 109616950.397 8  85415838.54148  20859395.160    20859395.040          49.750
        48.250
 14  1 10  0  3 30.0000000  0  7G02G31G25G14G24G12G29
 121755092.099 7  94874082.90846  23169223.780    23169221.080          44.250
        39.250
 127485570.906 7  99339406.64246  24259697.560    24259696.480          42.250
        36.500
 108783475.426 8  84766387.45048  20700794.280    20700796.160          50.250
        48.500
 113884242.318 7  88740955.72947  21671450.500    21671449.700          47.500
        43.250
 117385002.420 7  91468871.63647  22337612.700    22337615.100          45.750
        43.000
 111490979.209 8  86876135.41047  21216003.000    21216001.620          49.750
        46.750
 109553410.922 8  85366327.27048  20847304.060    20847303.820          49.500
        48.250
 14  1 10  0  4  0.0000000  0  7G02G31G25G14G24G12G29
 121739814.723 7  94862178.46846  23166316.540    23166313.960          45.000
        40.000
 127391111.594 7  99265802.00945  24241722.480    24241721.360          42.250
        35.750
 108768637.754 8  84754825.62448  20697970.780    20697972.640          50.000
        48.500
 113887288.738 7  88743329.55447  21672030.200    21672029.480          47.500
        43.500
 117465408.341 7  91531525.61147  22352913.400    22352915.780          45.500
        44.250
 111536665.213 8  86911734.88447  21224696.800    21224695.420          49.750
        46.750
 109490328.762 8  85317172.34848  20835299.960    20835299.700          49.750
        48.250
 14  1 10  0  4 30.0000000  0  7G02G31G25G14G24G12G29
 121724998.894 7  94850633.69046  23163497.180    23163494.700          45.000
        40.000
 127296676.880 6  99192216.53946  24223752.060    24223751.020          41.250
        36.000
 108754025.038 8  84743439.08648  20695190.060    20695191.840          50.000
        48.500
 113890920.837 7  88746159.75147  21672721.340    21672720.680          47.500
        43.000
 117546114.146 7  91594413.23947  22368271.160    22368273.620          45.250
        43.500
 111582506.582 8  86947455.42947  21233420.120    21233418.840          49.500
        47.500
 109427705.377 8  85268374.91648  20823383.080    20823382.920          49.750
        48.500
 14  1 10  0  5  0.0000000  0  7G02G31G25G14G24G12G29
 121710646.489 7  94839450.00446  23160765.900    23160763.640          44.750
        38.750
 127202270.034 6  99118652.79346  24205786.940    24205786.020          41.250
        38.000
 108739638.337 8  84732228.66848  20692452.340    20692454.060          50.000
        48.250
 113895139.165 7  88749446.76047  21673523.960    21673523.300          47.500
        43.000
 117627120.118 7  91657534.76347  22383686.080    22383688.560          45.500
        42.250
 111628503.876 8  86983297.47247  21242173.160    21242171.920          49.750
        47.000
 109365543.696 8  85219937.24948  20811554.060    20811554.040          49.750
        48.500
 14  1 10  0  5 30.0000000  0  7G02G31G25G14G24G12G29
 121696758.647 7  94828628.30946  23158123.120    23158120.800          45.000
        39.500
 127107891.305 6  99045110.93146  24187827.200    24187826.360          41.500
        38.000
 108725476.718 8  84721193.63848  20689757.440    20689759.200          50.000
        48.750
 113899942.945 7  88753189.95347  21674438.040    21674437.380          47.500
        43.500
 117708424.690 7  91720888.96647  22399157.840    22399160.340          45.250
        42.750
 111674656.537 8  87019260.57947  21250955.780    21250954.580          49.500
        47.250
 109303843.873 8  85171859.46848  20799812.900    20799813.000          49.750
        48.750
 14  1 10  0  6  0.0000000  0  7G02G31G25G14G24G12G29
 121683334.498 7  94818167.95646  23155568.620    23155566.200          45.000
        40.250
 127013540.858 7  98971591.12046  24169873.020    24169872.160          42.500
        36.500
 108711538.168 8  84710332.43048  20687105.000    20687106.820          50.000
        48.500
 113905329.771 7  88757387.48247  21675463.100    21675462.340          47.500
        43.250
 117790025.091 7  91784473.68047  22414685.840    22414688.400          45.750
        42.750
 111720961.332 8  87055342.23147  21259767.260    21259766.220          49.500
        47.250
 109242605.457 8  85124141.23148  20788159.600    20788159.740          49.750
        48.750
 14  1 10  0  6 30.0000000  0  7G02G31G25G14G24G12G29
 121670377.352 7  94808071.50046  23153103.080    23153100.460          45.000
        40.500
 126919222.972 7  98898096.67246  24151925.100    24151924.080          42.000
        39.000
 108697824.995 8  84699646.84348  20684495.480    20684497.340          50.000
        48.750
 113911301.680 7  88762040.90347  21676599.540    21676598.720          47.500
        43.000
 117871922.467 7  91848289.80947  22430270.320    22430273.000          45.000
        43.250
 111767420.673 8  87091544.30447  21268608.140    21268607.120          49.500
        46.500
 109181832.522 8  85076785.70548  20776594.960    20776595.000          50.000
        48.500
 14  1 10  0  7  0.0000000  0  7G02G31G25G14G24G12G29
 121657887.885 7  94798339.45046  23150726.400    23150723.880          44.500
        41.500
 126824938.400 6  98824628.18646  24133983.460    24133982.380          41.000
        38.250
 108684336.181 8  84689136.08348  20681928.680    20681930.560          50.000
        48.750
 113917857.555 7  88767149.36147  21677847.060    21677846.340          47.750
        43.250
 117954115.121 7  91912336.02147  22445910.980    22445913.780          44.750
        43.250
 111814032.669 8  87127865.33647  21277478.020    21277477.020          49.250
        47.000
 109121524.926 8  85029792.77948  20765118.940    20765118.760          50.000
        48.500
 14  1 10  0  7 30.0000000  0  7G02G31G25G14G24G12G29
 121645868.930 7  94788974.05446  23148439.160    23148436.740          44.500
        40.250
 126730690.644 6  98751188.39346  24116048.740    24116047.600          41.000
        38.000
 108671073.323 8  84678801.38648  20679404.840    20679406.700          50.000
        48.750
 113924998.707 7  88772713.88947  21679205.980    21679205.300          47.250
        43.750
 118036603.546 7  91976612.70647  22461607.980    22461610.880          45.000
        43.250
 111860798.383 8  87164306.14647  21286377.180    21286376.200          49.500
        46.500
 109061685.737 8  84983164.85648  20753732.060    20753731.700          50.000
        48.750
 14  1 10  0  8  0.0000000  0  7G02G31G25G14G24G12G29
 121634318.210 7  94779973.49346  23146240.940    23146238.780          44.500
        40.500
 126636478.145 7  98677776.06946  24098120.740    24098119.620          42.000
        36.500
 108658032.931 8  84668640.04648  20676923.280    20676925.140          50.000
        48.500
 113932721.197 7  88778731.39747  21680675.580    21680674.860          47.500
        42.500
 118119383.514 7  92041116.57947  22477360.500    22477363.420          45.000
        43.750
 111907714.862 8  87200864.43347  21295305.060    21295304.080          49.250
        46.750
 109002313.017 8  84936900.40948  20742433.860    20742433.400          49.750
        48.750
 14  1 10  0  8 30.0000000  0  7G02G31G25G14G24G12G29
 121623236.354 7  94771338.29146  23144131.940    23144130.060          43.750
        40.250
 126542302.342 7  98604392.34446  24080199.800    24080198.600          42.250
        39.000
 108645214.489 8  84658651.64948  20674483.920    20674485.820          50.000
        48.750
 113941024.313 7  88785201.35447  21682255.600    21682254.920          47.250
        42.750
 118202453.782 7  92105846.64447  22493168.360    22493171.180          45.000
        43.000
 111954780.975 8  87237539.31647  21304261.460    21304260.440          49.250
        47.000
 108943407.740 8  84891000.20348  20731224.500    20731224.120          49.750
        49.000
 14  1 10  0  9  0.0000000  0  7G02G31G25G14G24G12G29
 121612627.315 7  94763071.54046  23142113.000    23142111.160          44.000
        40.000
 126448168.032 7  98531040.95746  24062286.720    24062285.480          43.500
        37.750
 108632620.801 8  84648838.38648  20672087.420    20672089.320          50.000
        48.500
 113949910.418 7  88792125.57747  21683946.500    21683945.920          47.250
        43.000
 118285816.472 7  92170804.57447  22509031.820    22509034.600          44.750
        43.000
 112001998.764 8  87274332.39247  21313246.720    21313245.620          49.250
        46.500
 108884973.629 8  84845467.14548  20720104.740    20720104.500          49.750
        49.000
 14  1 10  0  9 30.0000000  0  7G02G31G25G14G24G12G29
 121602492.170 7  94755174.01846  23140184.340    23140182.360          44.500
        40.000
 126354076.620 7  98457722.98746  24044381.760    24044380.460          43.500
        37.750
 108620251.659 8  84639200.09848  20669733.680    20669735.600          50.000
        48.500
 113959378.799 7  88799503.53047  21685748.200    21685747.720          47.000
        42.750
 118369469.932 7  92235989.08147  22524950.580    22524953.360          44.750
        43.500
 112049367.611 8  87311243.17447  21322260.840    21322259.640          49.750
        46.750
 108827011.773 8  84800302.06448  20709074.880    20709074.700          49.750
        48.750
 14  1 10  0 10  0.0000000  0  7G02G31G25G14G24G12G29
 121592829.650 7  94747644.80246  23138345.720    23138343.500          44.750
        41.000
 126260027.691 7  98384438.10846  24026484.880    24026483.540          43.250
        37.750
 108608104.834 8  84629735.03348  20667422.200    20667424.180          49.750
        48.750
 113969427.081 7  88807333.35047  21687660.320    21687659.900          47.250
        43.500
 118453411.272 7  92301397.90447  22540924.120    22540926.880          44.750
        43.000
 112096885.234 8  87348269.88147  21331303.320    21331302.000          49.750
        46.750
 108769521.386 8  84755504.37048  20698134.780    20698134.580          49.750
        49.000
 14  1 10  0 10 30.0000000  0  7G02G31G25G14G24G12G29
 121583640.587 7  94740484.51446  23136597.220    23136594.880          44.750
        40.750
 126166022.955 7  98311187.68946  24008596.440    24008595.120          42.500
        38.000
 108596179.905 8  84620442.88548  20665152.920    20665154.960          50.000
        48.750
 113980054.226 7  88815614.24047  21689682.620    21689682.260          47.000
        43.500
 118537639.307 7  92367030.11847  22556952.240    22556954.900          45.250
        42.250
 112144551.091 8  87385412.09747  21340373.960    21340372.560          49.500
        46.750
 108712503.510 8  84711074.87848  20687284.600    20687284.460          49.750
        49.000
 14  1 10  0 11  0.0000000  0  7G02G31G25G14G24G12G29
 121574927.470 7  94733695.09446  23134939.240    23134936.860          44.500
        40.500
 126072065.680 7  98237974.25846  23990716.980    23990715.640          43.000
        37.500
 108584478.071 8  84611324.57548  20662926.180    20662928.160          50.000
        48.750
 113991260.837 7  88824346.66647  21691815.160    21691814.820          47.000
        43.000
 118622154.108 7  92432885.79746  22573035.020    22573037.420          45.250
        41.750
 112192365.590 8  87422670.14647  21349472.760    21349471.340          49.250
        46.500
 108655960.327 8  84667015.26348  20676524.820    20676524.660          50.000
        49.000
 14  1 10  0 11 30.0000000  0  7G02G31G25G14G24G12G29
 121566691.936 7  94727277.79546  23133372.020    23133369.760          44.750
        40.000
 125978158.115 7  98164799.53846  23972846.860    23972845.580          43.250
        39.000
 108572999.909 8  84602380.54948  20660741.960    20660743.940          49.750
        49.000
 114003046.880 7  88833530.59447  21694057.980    21694057.640          47.000
        43.250
 118706954.847 7  92498964.30347  22589172.120    22589174.400          45.000
        42.000
 112240329.108 8  87460044.30447  21358599.840    21358598.460          49.500
        47.000
 108599893.562 8  84623326.89248  20665855.720    20665855.540          50.000
        49.000
 14  1 10  0 12  0.0000000  0  7G02G31G25G14G24G12G29
 121558934.660 7  94721233.15746  23131895.940    23131893.600          45.500
        39.250
 125884302.290 7  98091665.14646  23954986.500    23954985.360          42.750
        38.500
 108561745.376 8  84593610.78648  20658600.220    20658602.300          50.000
        48.750
 114015412.076 7  88843165.81347  21696411.000    21696410.660          47.000
        43.000
 118792041.249 7  92565265.39047  22605363.480    22605365.900          45.250
        42.000
 112288441.193 8  87497534.23247  21367755.260    21367753.960          49.250
        46.500
 108544304.357 8  84580010.63748  20655277.460    20655277.260          50.000
        49.000
 14  1 10  0 12 30.0000000  0  7G02G31G25G14G24G12G29
 121551653.743 7  94715559.73546  23130510.520    23130508.000          44.750
        39.750
 125790496.833 7  98018570.01946  23937135.720    23937134.740          42.750
        37.750
 108550711.205 8  84585012.73948  20656500.500    20656502.600          50.000
        48.750
 114028352.648 7  88853249.37447  21698873.560    21698873.140          47.500
        43.000
 118877408.704 7  92631785.47446  22621608.340    22621610.840          45.000
        41.750
 112336698.334 8  87535137.19147  21376938.260    21376937.020          49.000
        46.500
 108489190.649 8  84537064.90448  20644789.660    20644789.440          50.000
        49.250
 14  1 10  0 13  0.0000000  0  7G02G31G25G14G24G12G29
 121544851.297 7  94710259.14846  23129216.220    23129213.540          45.250
        41.000
 125696745.235 7  97945516.83446  23919295.320    23919294.380          43.000
        38.250
 108539899.016 8  84576587.64748  20654443.120    20654445.080          50.000
        49.000
 114041869.224 7  88863781.75547  21701445.760    21701445.180          47.000
        42.750
 118963057.571 7  92698524.82847  22637906.780    22637909.240          45.000
        42.500
 112385101.664 8  87572854.08247  21386148.960    21386147.860          49.250
        46.500
 108434555.270 8  84494491.89848  20634392.900    20634392.640          50.000
        49.250
 14  1 10  0 13 30.0000000  0  7G02G31G25G14G24G12G29
 121538528.057 7  94705331.96946  23128013.080    23128010.320          45.000
        41.000
 125603048.596 7  97872506.49746  23901465.400    23901464.520          42.500
        38.250
 108529308.065 8  84568334.96448  20652427.820    20652429.660          50.000
        48.750
 114055960.636 7  88874762.06747  21704127.340    21704126.680          47.250
        43.000
 119048986.382 7  92765482.32346  22654258.500    22654260.920          44.750
        41.500
 112433650.409 8  87610684.27547  21395387.380    21395386.460          49.250
        46.750
 108380398.703 8  84452291.98448  20624087.220    20624086.920          49.750
        49.250
 14  1 10  0 14  0.0000000  0  7G02G31G25G14G24G12G29
 121532684.250 7  94700778.36346  23126901.080    23126898.280          44.750
        40.500
 125509408.530 7  97799540.22646  23883646.300    23883645.340          42.250
        37.000
 108518937.799 8  84560254.24148  20650454.440    20650456.240          50.000
        48.500
 114070625.688 7  88886189.35547  21706918.060    21706917.340          47.250
        43.000
 119135194.051 7  92832657.12646  22670663.300    22670665.740          45.000
        41.750
 112482343.442 8  87648626.89747  21404653.240    21404652.520          49.000
        46.750
 108326721.332 8  84410465.46948  20613872.700    20613872.380          49.750
        49.500
 14  1 10  0 14 30.0000000  0  7G02G31G25G14G24G12G29
 121527323.644 7  94696601.27346  23125880.840    23125878.100          45.000
        39.000
 125415829.428 7  97726621.47646  23865838.760    23865837.780          42.500
        36.750
 108508790.801 8  84552347.48848  20648523.500    20648525.380          50.000
        48.750
 114085866.139 7  88898065.02447  21709818.240    21709817.500          47.000
        43.250
 119221681.383 7  92900049.84246  22687121.320    22687123.660          44.750
        41.500
 112531183.019 8  87686683.69447  21413947.140    21413946.320          49.500
        46.250
 108273527.028 8  84369015.36848  20603750.100    20603749.840          50.000
        49.250
 14  1 10  0 15  0.0000000  0  7G02G31G25G14G24G12G29
 121522444.792 7  94692799.58146  23124952.200    23124949.580          44.750
        40.500
 125322311.004 6  97653749.96846  23848042.820    23848041.700          41.750
        38.750
 108498864.759 8  84544612.90948  20646634.640    20646636.540          50.000
        48.750
 114101679.119 7  88910386.82647  21712827.360    21712826.600          47.250
        43.000
 119308445.179 7  92967657.97446  22703631.900    22703634.160          44.000
        41.750
 112580166.389 8  87724852.54847  21423268.460    21423267.440          49.500
        46.250
 108220814.227 8  84327940.46948  20593719.180    20593718.960          50.000
        49.500
 14  1 10  0 15 30.0000000  0  7G02G31G25G14G24G12G29
 121518049.667 7  94689374.82946  23124115.840    23124113.120          45.250
        40.750
 125228856.625 7  97580928.42046  23830258.800    23830257.820          42.000
        36.750
 108489160.976 8  84537051.52648  20644788.080    20644789.960          50.000
        49.000
 114118065.121 7  88923155.13147  21715945.500    21715944.740          47.000
        43.000
 119395485.835 7  93035481.85347  22720195.200    22720197.480          44.500
        42.000
 112629294.539 8  87763134.21547  21432617.420    21432616.140          49.500
        46.250
 108168585.394 8  84287242.68548  20583780.380    20583780.220          50.250
        49.500
 14  1 10  0 16  0.0000000  0  7G02G31G25G14G24G12G29
 121514136.143 7  94686325.31746  23123371.140    23123368.400          44.750
        40.500
 125135465.165 6  97508155.82446  23812486.840    23812485.960          40.750
        38.000
 108479676.457 8  84529660.99248  20642983.240    20642985.140          50.000
        48.750
 114135020.322 7  88936366.97247  21719171.920    21719171.260          47.250
        42.500
 119482799.350 7  93103518.33646  22736810.420    22736812.680          44.250
        41.250
 112678564.574 8  87801526.43447  21441993.380    21441991.940          49.250
        46.250
 108116838.539 8  84246920.47748  20573933.340    20573933.160          50.250
        49.250
 14  1 10  0 16 30.0000000  0  7G02G31G25G14G24G12G29
 121510709.400 7  94683655.13846  23122719.060    23122716.400          45.000
        39.750
 125042142.564 7  97435436.95146  23794727.900    23794727.220          42.250
        38.250
 108470415.377 8  84522444.56348  20641220.920    20641222.840          50.000
        49.000
 114152548.080 7  88950024.96447  21722507.320    21722506.720          47.000
        43.000
 119570388.794 7  93171769.84946  22753478.020    22753480.440          44.250
        41.750
 112727980.122 8  87840032.05147  21451396.860    21451395.380          49.250
        45.750
 108065578.890 8  84206977.90148  20564179.040    20564178.780          50.250
        49.500
 14  1 10  0 17  0.0000000  0  7G02G31G25G14G24G12G29
 121507762.875 7  94681359.15746  23122158.420    23122155.640          45.000
        40.250
 124948883.743 7  97362767.75546  23776981.320    23776980.600          43.750
        36.750
 108461370.397 8  84515396.52748  20639499.700    20639501.560          50.000
        48.750
 114170640.314 7  88964122.80847  21725950.160    21725949.620          47.000
        42.750
 119658245.314 7  93240229.47446  22770196.480    22770199.100          44.250
        41.500
 112777533.049 8  87878644.71047  21460826.500    21460824.940          49.500
        46.250
 108014799.986 8  84167409.93248  20554516.140    20554515.820          50.000
        49.500
 14  1 10  0 17 30.0000000  0  7G02G31G25G14G24G12G29
 121505301.004 7  94679440.82246  23121690.000    23121687.080          45.250
        40.500
 124855694.352 7  97290152.65346  23759248.100    23759247.200          44.000
        37.750
 108452545.119 8  84508519.69748  20637820.280    20637822.100          50.000
        48.750
 114189299.720 7  88978662.59147  21729500.920    21729500.340          47.000
        42.750
 119746371.631 7  93308899.31447  22786966.340    22786968.940          44.000
        42.250
 112827227.392 8  87917367.56047  21470283.080    21470281.540          49.500
        46.250
 107964506.344 8  84128220.09748  20544945.580    20544945.180          50.000
        49.500
 14  1 10  0 18  0.0000000  0  7G02G31G25G14G24G12G29
 121503325.665 7  94677901.61146  23121314.180    23121311.140          45.250
        40.250
 124762577.302 7  97217593.91946  23741528.700    23741527.500          43.500
        37.000
 108443940.513 8  84501814.81448  20636182.920    20636184.680          50.250
        48.750
 114208526.242 7  88993644.28847  21733159.620    21733158.960          47.250
        43.000
 119834768.065 7  93377779.65247  22803787.620    22803790.080          44.000
        42.250
 112877063.633 8  87956200.98347  21479766.600    21479765.120          49.000
        46.000
 107914699.958 8  84089409.93748  20535467.680    20535467.260          50.000
        49.500
 14  1 10  0 18 30.0000000  0  7G02G31G25G14G24G12G29
 121501836.249 7  94676741.03546  23121030.840    23121027.720          45.250
        40.500
 124669533.144 7  97145091.99846  23723823.140    23723821.640          43.500
        37.500
 108435555.474 8  84495281.00748  20634587.280    20634589.060          50.000
        48.750
 114228317.862 7  89009066.33147  21736925.840    21736925.220          46.750
        43.500
 119923431.496 7  93446868.02646  22820659.780    22820662.140          44.250
        41.000
 112927039.856 8  87995143.48247  21489276.640    21489275.260          48.750
        46.750
 107865380.444 8  84050979.15948  20526082.440    20526082.060          50.000
        49.500
 14  1 10  0 19  0.0000000  0  7G02G31G25G14G24G12G29
 121500832.337 7  94675958.76846  23120839.800    23120836.700          45.000
        40.500
 124576563.355 7  97072648.01746  23706131.740    23706129.900          44.250
        39.000
 108427388.923 8  84488917.46248  20633033.140    20633035.040          49.750
        48.750
 114248672.858 7  89024927.35747  21740799.300    21740798.740          46.750
        43.250
 120012360.202 7  93516163.10546  22837582.500    22837584.680          44.500
        40.750
 112977154.762 8  88034194.06447  21498813.100    21498811.820          49.000
        46.250
 107816547.793 8  84012927.74948  20516789.840    20516789.520          50.000
        49.750
 14  1 10  0 19 30.0000000  0  7G02G31G25G14G24G12G29
 121500317.643 7  94675557.70846  23120741.820    23120738.820          44.750
        39.750
 124483672.164 7  97000265.27346  23688455.280    23688453.220          44.250
        38.250
 108419443.624 8  84482726.32948  20631521.100    20631523.120          50.000
        48.750
 114269592.918 7  89041228.69447  21744780.240    21744779.740          47.250
        43.250
 120101555.971 7  93585666.30846  22854556.020    22854558.020          44.250
        40.750
 113027411.459 8  88073355.12147  21508376.480    21508375.420          48.750
        46.750
 107768205.763 8  83975258.63948  20507590.600    20507590.360          50.000
        49.500
 14  1 10  0 20  0.0000000  0  7G02G31G25G14G24G12G29
 121500294.248 7  94675539.49446  23120737.320    23120734.300          44.500
        40.750
 124390863.342 7  96927946.70945  23670794.340    23670792.320          44.000
        35.750
 108411721.040 8  84476708.72248  20630051.600    20630053.600          50.000
        48.750
 114291078.188 7  89057970.45147  21748868.720    21748868.240          47.250
        43.000
 120191018.672 7  93655377.47946  22871580.240    22871582.240          44.250
        40.750
 113077810.739 8  88112627.27447  21517967.040    21517966.300          49.000
        46.500
 107720356.568 8  83937973.55848  20498485.140    20498484.980          50.000
        49.500
 14  1 10  0 20 30.0000000  0  7G02G31G25G14G24G12G29
 121500756.846 7  94675899.97746  23120825.280    23120822.180          45.000
        39.500
 124298132.479 7  96855688.90146  23653148.160    23653146.260          43.750
        39.000
 108404215.159 8  84470859.98348  20628623.320    20628625.240          50.000
        48.750
 114313122.158 7  89075147.55847  21753063.520    21753063.020          47.250
        42.250
 120280741.269 7  93725291.17046  22888654.000    22888655.980          44.000
        40.750
 113128346.082 8  88152005.47647  21527583.520    21527583.060          48.750
        46.500
 107672994.925 8  83901068.39648  20489472.500    20489472.380          50.250
        49.750
 14  1 10  0 21  0.0000000  0  7G02G31G25G14G24G12G29
 121501711.108 7  94676643.57246  23121006.760    23121003.720          44.750
        40.250
 124205487.158 7  96783497.75446  23635518.180    23635516.480          43.250
        38.750
 108396931.073 8  84465184.06748  20627237.200    20627239.080          50.000
        48.750
 114335728.377 7  89092762.77347  21757365.360    21757364.840          47.250
        42.750
 120370727.637 7  93795410.40646  22905777.940    22905779.740          43.750
        40.750
 113179022.331 8  88191493.45847  21537226.880    21537226.520          49.250
        46.250
 107626126.517 8  83864547.57548  20480553.800    20480553.600          50.250
        49.750
 14  1 10  0 21 30.0000000  0  7G02G31G25G14G24G12G29
 121503156.180 7  94677769.60846  23121281.640    23121278.860          45.000
        40.500
 124112928.100 7  96711373.85446  23617904.560    23617903.220          43.500
        39.750
 108389867.386 8  84459679.90148  20625893.000    20625894.940          50.000
        49.000
 114358894.142 7  89110814.02347  21761773.640    21761773.080          47.000
        42.750
 120460974.944 7  93865732.97546  22922951.360    22922953.300          42.500
        41.000
 113229837.993 8  88231090.06747  21546896.880    21546896.360          49.250
        46.000
 107579751.147 8  83828410.93148  20471728.980    20471728.620          50.250
        50.000
 14  1 10  0 22  0.0000000  0  7G02G31G25G14G24G12G29
 121505090.251 7  94679276.67446  23121649.640    23121647.020          45.250
        41.000
 124020454.274 7  96639316.34846  23600307.260    23600306.220          44.000
        40.500
 108383021.470 8  84454345.42648  20624590.220    20624592.260          50.000
        48.750
 114382616.150 7  89129298.69047  21766287.800    21766287.180          47.000
        42.750
 120551479.992 7  93936256.36446  22940173.760    22940175.860          43.250
        40.250
 113280790.307 8  88270793.16347  21556593.040    21556592.120          49.500
        46.250
 107533866.603 8  83792656.75748  20462997.480    20462997.060          50.250
        49.750
 14  1 10  0 22 30.0000000  0  7G02G31G25G14G24G12G29
 121507513.526 7  94681164.94946  23122110.840    23122108.220          45.000
        39.750
 123928067.829 7  96567326.93046  23582726.640    23582725.800          43.500
        41.750
 108376393.451 8  84449180.74248  20623328.900    20623330.980          50.000
        48.750
 114406893.190 7  89148215.86047  21770907.640    21770907.000          47.500
        42.500
 120642241.018 7  94006979.24246  22957444.880    22957446.980          43.750
        40.250
 113331878.493 8  88310602.12347  21566314.960    21566313.760          49.000
        45.750
 107488473.903 8  83757285.82848  20454359.500    20454359.140          50.000
        50.000
 14  1 10  0 23  0.0000000  0  7G02G31G25G14G24G12G29
 121510429.017 7  94683436.78746  23122665.720    23122662.920          44.750
        40.750
 123835773.124 7  96495409.01946  23565163.440    23565162.800          43.250
        40.250
 108369985.401 8  84444187.45248  20622109.480    20622111.500          50.000
        48.750
 114431726.330 7  89167566.35046  21775633.240    21775632.640          47.250
        41.750
 120733258.903 7  94077902.27246  22974764.980    22974766.960          43.750
        40.000
 113383105.022 8  88350518.88147  21576063.120    21576061.760          49.250
        45.750
 107443575.626 8  83722300.15448  20445815.560    20445815.300          50.250
        50.000
 14  1 10  0 23 30.0000000  0  7G02G31G25G14G24G12G29
 121513834.945 7  94686090.77346  23123313.860    23123310.920          44.500
        40.750
 123743569.779 7  96423562.28246  23547617.760    23547617.160          43.500
        40.500
 108363795.074 8  84439363.81248  20620931.540    20620933.480          50.000
        48.750
 114457111.901 7  89187347.28847  21780463.940    21780463.360          47.000
        42.750
 120824530.545 7  94149023.01646  22992133.400    22992135.420          43.000
        41.500
 113434466.898 8  88390541.10947  21585837.000    21585835.520          49.000
        45.250
 107399170.358 8  83687698.65548  20437365.460    20437365.300          50.250
        50.000
 14  1 10  0 24  0.0000000  0  7G02G31G25G14G24G12G29
 121517732.634 7  94689127.93746  23124055.440    23124052.500          44.750
        40.000
 123651460.747 7  96351789.02646  23530090.040    23530089.440          43.000
        40.500
 108357823.168 8  84434710.38548  20619795.200    20619797.080          50.250
        49.000
 114483049.484 7  89207558.37447  21785399.720    21785399.080          47.250
        42.750
 120916055.112 7  94220340.84646  23009549.980    23009551.980          43.750
        40.000
 113485964.517 8  88430669.12647  21595636.620    21595635.160          48.750
        45.750
 107355259.534 8  83653482.43048  20429009.500    20429009.360          50.250
        50.000
 14  1 10  0 24 30.0000000  0  7G02G31G25G14G24G12G29
 121522121.695 7  94692547.99946  23124890.600    23124887.840          45.250
        40.750
 123559447.578 7  96280090.49646  23512580.540    23512579.980          42.750
        40.750
 108352069.324 8  84430226.86248  20618700.360    20618702.160          50.000
        48.750
 114509537.456 7  89228198.34647  21790440.240    21790439.640          47.250
        42.750
 121007831.032 7  94291854.55746  23027014.460    23027016.240          43.500
        39.250
 113537597.385 8  88470902.52947  21605461.900    21605460.460          48.750
        45.250
 107311843.130 8  83619651.47048  20420747.660    20420747.460          50.250
        50.000
 14  1 10  0 25  0.0000000  0  7G02G31G25G14G24G12G29
 121527004.114 7  94696352.48146  23125819.640    23125817.140          45.000
        40.000
 123467533.489 7  96208469.15146  23495089.960    23495089.360          43.750
        40.500
 108346534.713 8  84425914.17848  20617647.220    20617648.900          50.250
        48.750
 114536575.825 7  89249267.19647  21795585.520    21795584.900          47.000
        42.500
 121099858.249 7  94363564.04946  23044526.640    23044528.500          43.000
        41.500
 113589366.439 8  88511242.03847  21615313.100    21615311.600          48.750
        45.000
 107268923.109 8  83586207.31048  20412580.280    20412580.020          50.250
        49.750
 14  1 10  0 25 30.0000000  0  7G02G31G25G14G24G12G29
 121532379.392 7  94700541.03146  23126842.440    23126840.060          44.500
        41.250
 123375719.685 7  96136925.92246  23477618.580    23477617.820          44.250
        40.000
 108341218.527 8  84421771.69648  20616635.600    20616637.280          50.000
        49.000
 114564162.533 7  89270763.32447  21800835.080    21800834.540          47.000
        42.250
 121192134.375 7  94435467.50646  23062086.020    23062088.280          42.500
        41.250
 113641270.613 8  88551686.83147  21625190.020    21625188.580          48.750
        45.500
 107226499.431 8  83553149.90148  20404507.340    20404507.000          50.250
        50.000
 14  1 10  0 26  0.0000000  0  7G02G31G25G14G24G12G29
 121538248.689 7  94705114.51546  23127959.200    23127956.960          44.000
        39.750
 123284008.801 7  96065462.92246  23460166.680    23460165.780          43.750
        40.500
 108336121.450 8  84417799.94548  20615665.620    20615667.380          50.000
        49.000
 114592296.598 7  89292685.94347  21806188.760    21806188.240          47.000
        42.750
 121284659.080 7  94507564.68546  23079692.720    23079695.140          42.500
        39.500
 113693309.924 8  88592236.94747  21635092.680    21635091.360          48.750
        45.500
 107184573.213 8  83520480.12648  20396529.060    20396528.660          50.250
        50.000
 14  1 10  0 26 30.0000000  0  7G02G31G25G14G24G12G29
 121544610.934 7  94710072.10446  23129169.820    23129167.580          45.000
        38.500
 123192401.790 7  95994080.85346  23442734.520    23442733.520          45.000
        40.250
 108331242.297 8  84413998.01248  20614737.120    20614738.980          50.000
        49.000
 114620975.384 7  89315033.04547  21811646.100    21811645.660          47.000
        42.500
 121377429.262 6  94579853.13246  23097346.140    23097348.740          41.500
        41.000
 113745483.563 8  88632891.72147  21645020.940    21645019.720          48.500
        45.500
 107143143.667 8  83488197.36948  20388645.220    20388644.840          50.250
        50.000
 14  1 10  0 27  0.0000000  0  7G02G31G25G14G24G12G29
 121551465.616 7  94715413.43146  23130474.260    23130471.980          44.750
        40.250
 123100899.670 7  95922780.51446  23425322.320    23425321.180          44.750
        40.250
 108326579.959 8  84410365.01948  20613849.920    20613851.800          50.250
        48.750
 114650196.602 7  89337802.80347  21817206.640    21817206.220          46.750
        42.000
 121470443.250 7  94652331.54846  23115046.000    23115048.860          42.250
        39.750
 113797789.533 8  88673649.60247  21654974.420    21654973.380          48.750
        45.500
 107102210.225 8  83456301.18148  20380855.760    20380855.440          50.250
        50.000
 14  1 10  0 27 30.0000000  0  7G02G31G25G14G24G12G29
 121558814.115 7  94721139.54346  23131872.640    23131870.340          44.750
        40.000
 123009505.812 7  95851564.52646  23407930.680    23407929.240          44.500
        37.750
 108322135.709 8  84406901.96848  20613004.260    20613006.080          50.250
        48.750
 114679960.130 7  89360995.15447  21822870.480    21822870.040          47.250
        42.500
 121563700.612 7  94724999.61046  23132792.300    23132795.320          42.750
        39.250
 113850229.303 8  88714511.76947  21664953.360    21664952.600          48.750
        46.000
 107061774.776 8  83424793.04348  20373161.060    20373160.820          50.250
        50.250
 14  1 10  0 28  0.0000000  0  7G02G31G25G14G24G12G29
 121566657.316 7  94727251.13846  23133365.020    23133362.860          43.500
        41.250
 122918222.330 7  95780434.53246  23390560.060    23390558.360          45.500
        38.750
 108317909.699 8  84403608.97148  20612200.080    20612201.860          50.000
        48.750
 114710264.398 7  89384608.86047  21828637.260    21828636.800          47.250
        42.750
 121657199.893 7  94797856.17446  23150584.780    23150587.760          42.750
        40.250
 113902802.070 8  88755477.55847  21674957.660    21674957.140          48.750
        45.750
 107021837.828 8  83393673.34648  20365561.240    20365561.040          50.250
        50.500
 14  1 10  0 28 30.0000000  0  7G02G31G25G14G24G12G29
 121574993.996 7  94733747.25446  23134951.260    23134949.240          44.000
        41.500
 122827050.436 7  95709391.50646  23373210.680    23373208.780          45.000
        38.500
 108313900.872 8  84400485.21348  20611437.180    20611439.000          50.000
        48.750
 114741107.192 7  89408642.20147  21834506.560    21834506.000          47.250
        42.000
 121750938.874 7  94870899.53046  23168422.880    23168425.780          43.250
        40.750
 113955507.259 8  88796546.53447  21684987.220    21684986.820          48.750
        45.750
 106982398.945 8  83362941.75248  20358056.260    20358056.080          50.500
        50.250
 14  1 10  0 29  0.0000000  0  7G02G31G25G14G24G12G29
 121583826.615 7  94740629.84146  23136631.980    23136629.980          44.500
        40.750
 122735993.738 7  95638438.23946  23355883.180    23355881.260          45.500
        39.750
 108310111.195 8  84397532.21048  20610716.000    20610717.860          50.000
        49.000
 114772488.790 7  89433095.37847  21840478.360    21840477.740          47.250
        42.250
 121844918.010 7  94944130.01846  23186306.660    23186309.280          42.750
        40.000
 114008346.426 8  88837719.90047  21695042.340    21695041.840          49.000
        45.750
 106943460.249 8  83332599.92148  20350646.560    20350646.340          50.500
        50.500
 14  1 10  0 29 30.0000000  0  7G02G31G25G14G24G12G29
 121593154.259 7  94747898.16146  23138406.960    23138404.900          44.500
        40.750
 122645053.988 7  95567576.09946  23338577.960    23338576.040          45.250
        40.000
 108306540.067 8  84394749.51948  20610036.420    20610038.320          50.250
        48.750
 114804407.276 7  89457966.92447  21846552.260    21846551.540          47.000
        42.500
 121939135.365 7  95017546.13446  23204235.720    23204238.160          42.500
        39.000
 114061318.623 8  88878996.92947  21705122.780    21705122.160          48.750
        46.000
 106905021.719 8  83302647.81848  20343332.060    20343331.760          50.500
        50.500
 14  1 10  0 30  0.0000000  0  7G02G31G25G14G24G12G29
 121602976.727 7  94755552.04347  23140276.200    23140274.220          44.500
        42.250
 122554232.361 7  95496806.03046  23321295.080    23321293.320          44.250
        39.750
 108303186.653 8  84392136.46548  20609398.280    20609400.200          50.250
        48.750
 114836859.939 7  89483254.69547  21852727.760    21852727.080          47.000
        42.250
 122033588.889 7  95091146.24846  23222209.660    23222212.040          42.500
        38.750
 114114422.128 8  88920376.27547  21715228.120    21715227.460          48.500
        45.500
 106867082.891 8  83273085.10148  20336112.660    20336112.340          50.500
        50.750
 14  1 10  0 30 30.0000000  0  7G02G31G25G14G24G12G29
 121613294.284 7  94763591.69846  23142239.560    23142237.820          44.250
        40.500
 122463531.208 7  95426129.81146  23304035.140    23304033.480          44.750
        39.500
 108300050.966 8  84389693.07248  20608801.600    20608803.520          50.000
        49.000
 114869845.248 7  89508957.51446  21859004.620    21859003.900          46.500
        41.500
 122128277.140 7  95164929.29046  23240228.260    23240230.540          42.500
        38.750
 114167657.111 8  88961858.08147  21725358.480    21725357.640          48.750
        45.250
 106829644.218 8  83243912.10948  20328988.320    20328988.040          50.250
        50.500
 14  1 10  0 31  0.0000000  0  7G02G31G25G14G24G12G29
 121624106.452 7  94772016.77046  23144297.020    23144295.340          44.500
        41.000
 122372951.846 7  95355548.50446  23286798.340    23286796.840          44.250
        41.250
 108297132.482 8  84387418.93748  20608246.220    20608248.120          50.000
        48.750
 114903361.389 7  89535073.98147  21865382.520    21865381.840          46.750
        42.500
 122223198.107 7  95238893.67446  23258291.140    23258293.380          42.500
        39.750
 114221023.536 8  89003442.30047  21735513.760    21735512.760          48.500
        45.250
 106792705.544 8  83215128.72948  20321959.080    20321958.860          50.250
        50.500
 14  1 10  0 31 30.0000000  0  7G02G31G25G14G24G12G29
 121635412.177 7  94780826.43446  23146448.440    23146446.780          44.750
        40.750
 122282495.376 7  95285062.97846  23269584.920    23269583.620          44.250
        41.500
 108294430.140 8  84385313.21448  20607731.940    20607733.840          50.000
        49.000
 114937405.321 7  89561601.69947  21871860.860    21871860.200          46.750
        42.000
 122318349.229 7  95313037.38546  23276397.820    23276400.040          42.750
        39.000
 114274519.440 8  89045127.39547  21745693.700    21745692.560          48.500
        45.000
 106756265.880 8  83186734.19448  20315024.780    20315024.580          50.500
        50.500
 14  1 10  0 32  0.0000000  0  7G02G31G25G14G24G12G29
 121647216.111 7  94790024.31746  23148694.600    23148692.840          44.000
        41.000
 122192168.316 7  95214678.28046  23252396.060    23252395.000          44.000
        41.250
 108291948.468 8  84383379.44648  20607259.640    20607261.560          50.250
        48.750
 114971980.157 7  89588543.12347  21878440.160    21878439.620          46.500
        42.250
 122413733.315 7  95387362.62846  23294548.780    23294551.040          42.750
        37.250
 114328148.808 8  89086916.51747  21755899.000    21755897.740          48.500
        44.500
 106720330.274 8  83158732.41648  20308186.440    20308186.200          50.250
        50.500
 14  1 10  0 32 30.0000000  0  7G02G31G25G14G24G12G29
 121659512.639 7  94799606.03346  23151034.500    23151032.660          44.000
        40.750
 122101967.080 7  95144391.58946  23235231.200    23235230.180          44.250
        40.750
 108289681.601 8  84381613.05248  20606828.280    20606830.160          50.250
        48.750
 115007078.182 7  89615892.21747  21885119.100    21885118.540          46.750
        42.250
 122509343.212 7  95461863.83546  23312742.800    23312744.960          43.000
        39.500
 114381906.095 8  89128805.30047  21766128.540    21766127.200          48.250
        44.500
 106684892.921 8  83131118.89948  20301442.940    20301442.640          50.500
        50.500
 14  1 10  0 33  0.0000000  0  7G02G31G25G14G24G12G29
 121672305.182 7  94809574.26346  23153468.880    23153466.860          44.500
        39.750
 122011896.875 7  95074207.05746  23218091.220    23218090.380          44.500
        41.250
 108287632.931 8  84380016.68148  20606438.460    20606440.200          50.250
        48.500
 115042701.040 7  89643650.28247  21891897.900    21891897.400          46.750
        42.000
 122605181.026 7  95536542.64446  23330980.280    23330982.300          43.250
        37.750
 114435793.925 8  89170795.81047  21776382.800    21776381.660          48.000
        45.000
 106649957.329 8  83103896.36448  20294794.940    20294794.600          50.500
        50.500
 14  1 10  0 33 30.0000000  0  7G02G31G25G14G24G12G29
 121685591.410 7  94819927.17646  23155997.200    23155995.060          44.500
        40.250
 121921958.031 7  95004124.84946  23200976.380    23200975.520          45.000
        40.750
 108285800.408 8  84378588.73348  20606089.760    20606091.400          50.250
        48.750
 115078844.709 7  89671814.17246  21898775.840    21898775.340          47.000
        41.750
 122701242.830 7  95611395.98846  23349260.400    23349262.260          42.750
        38.500
 114489810.074 8  89212886.31447  21786661.580    21786660.600          48.250
        44.500
 106615521.949 8  83077063.59848  20288242.080    20288241.760          50.500
        50.500
 14  1 10  0 34  0.0000000  0  7G02G31G25G14G24G12G29
 121699373.684 7  94830666.62046  23158619.920    23158617.700          44.250
        40.500
 121832154.625 7  94934148.18746  23183887.360    23183886.340          44.750
        40.000
 108284186.242 8  84377330.94448  20605782.620    20605784.300          50.250
        48.750
 115115509.974 7  89700384.49846  21905753.060    21905752.620          46.750
        41.250
 122797529.794 7  95686424.77446  23367583.280    23367585.140          43.000
        38.750
 114543956.273 8  89255078.13547  21796965.120    21796964.240          48.250
        44.750
 106581589.047 8  83050622.37848  20281784.880    20281784.540          50.500
        50.500
 14  1 10  0 34 30.0000000  0  7G02G31G25G14G24G12G29
 121713651.489 7  94841792.18746  23161336.920    23161334.600          44.500
        39.500
 121742488.196 7  94864278.25746  23166824.480    23166823.280          45.000
        40.000
 108282789.837 8  84376242.83848  20605516.880    20605518.640          50.000
        49.000
 115152694.353 7  89729359.32846  21912829.080    21912828.580          46.750
        41.750
 122894039.629 6  95761627.23746  23385948.420    23385950.460          41.750
        40.500
 114598232.631 8  89297371.39047  21807293.580    21807292.680          48.250
        44.750
 106548158.424 8  83024572.54448  20275423.260    20275422.900          50.500
        50.500
 14  1 10  0 35  0.0000000  0  7G02G31G25G14G24G12G29
 121728424.200 7  94853303.39946  23164148.160    23164145.540          44.750
        39.500
 121652960.535 7  94794516.45346  23149788.040    23149786.720          45.000
        39.000
 108281610.728 8  84375324.04848  20605292.500    20605294.280          50.250
        48.750
 115190395.590 7  89758736.90646  21920003.440    21920002.940          47.250
        41.250
 122990770.147 6  95837001.66346  23404355.440    23404357.680          41.500
        39.500
 114652637.976 8  89339765.15847  21817646.680    21817645.700          48.250
        44.750
 106515229.442 8  82998913.59948  20269157.140    20269156.700          50.500
        50.750
 14  1 10  0 35 30.0000000  0  7G02G31G25G14G24G12G29
 121743692.488 7  94865200.77846  23167053.800    23167050.780          44.750
        40.250
 121563574.791 7  94724865.22446  23132778.500    23132777.160          45.000
        40.000
 108280649.829 8  84374575.29548  20605109.640    20605111.440          50.250
        49.000
 115228612.715 7  89788516.46546  21927275.940    21927275.460          46.750
        41.250
 123087720.795 6  95912547.62346  23422804.340    23422806.860          41.250
        40.250
 114707172.385 8  89382259.48847  21828024.360    21828023.320          48.500
        45.250
 106482803.561 8  82973646.67748  20262986.700    20262986.260          50.500
        50.750
 14  1 10  0 36  0.0000000  0  7G02G31G25G14G24G12G29
 121759454.741 7  94877483.06146  23170053.440    23170050.100          44.750
        38.750
 121474330.839 7  94655324.50446  23115796.000    23115794.680          45.250
        41.500
 108279905.304 8  84373995.13948  20604968.000    20604969.760          50.250
        49.000
 115267341.924 7  89818695.05546  21934645.860    21934645.340          47.000
        41.500
 123184888.088 6  95988262.37846  23441294.520    23441297.320          41.500
        40.500
 114761834.234 8  89424853.12247  21838426.420    21838425.280          48.750
        45.250
 106450878.585 8  82948770.07848  20256911.560    20256911.140          50.500
        50.500
 14  1 10  0 36 30.0000000  0  7G02G31G25G14G24G12G29
 121775711.172 7  94890150.42446  23173147.180    23173143.440          45.500
        39.250
 121385231.526 7  94585896.47746  23098840.980    23098839.700          45.250
        40.000
 108279377.808 8  84373584.10448  20604867.660    20604869.420          50.250
        49.000
 115306582.086 7  89849271.79746  21942113.000    21942112.360          46.500
        41.500
 123282271.617 6  96064145.62346  23459825.960    23459828.760          41.500
        39.250
 114816623.570 8  89467546.11047  21848852.740    21848851.400          48.750
        45.250
 106419455.412 8  82924284.48848  20250931.920    20250931.560          50.500
        50.750
 14  1 10  0 37  0.0000000  0  7G02G31G25G14G24G12G29
 121792462.141 7  94903203.13046  23176335.000    23176330.980          45.500
        40.000
 121296279.840 7  94516583.48746  23081914.060    23081912.880          45.500
        41.250
 108279067.525 8  84373342.32548  20604808.620    20604810.360          50.250
        48.750
 115346331.558 7  89880245.39746  21949677.060    21949676.440          46.750
        41.250
 123379869.552 6  96140195.96846  23478398.300    23478401.020          41.750
        39.250
 114871541.163 8  89510339.02147  21859303.440    21859301.940          48.750
        44.750
 106388534.066 8  82900189.93548  20245047.800    20245047.500          50.500
        50.750
 14  1 10  0 37 30.0000000  0  7G02G31G25G14G24G12G29
 121809706.375 7  94916640.22146  23179616.640    23179612.420          45.250
        39.750
 121207475.760 7  94447385.53146  23065015.220    23065014.060          46.250
        40.750
 108278973.281 8  84373268.88648  20604790.660    20604792.400          50.000
        48.750
 115386587.263 7  89911613.45846  21957337.480    21957336.880          46.500
        41.500
 123477679.179 6  96216411.25346  23497011.040    23497013.640          41.750
        38.750
 114926585.077 8  89553230.37847  21869778.060    21869776.660          48.250
        45.500
 106358113.758 8  82876485.80648  20239259.020    20239258.680          50.500
        50.500
 14  1 10  0 38  0.0000000  0  7G02G31G25G14G24G12G29
 121827446.951 7  94930464.04346  23182992.560    23182988.420          44.250
        40.750
 121118825.545 7  94378307.44246  23048145.620    23048144.480          45.500
        40.500
 108279098.913 8  84373366.77148  20604814.520    20604816.200          50.000
        48.750
 115427350.692 7  89943377.16146  21965094.480    21965093.960          46.500
        41.750
 123575702.467 6  96292793.01746  23515664.340    23515666.900          41.750
        38.500
 114981758.333 8  89596222.51347  21880277.120    21880275.980          48.000
        45.250
 106328198.231 8  82853175.01248  20233566.300    20233565.920          50.500
        50.750
 14  1 10  0 38 30.0000000  0  7G02G31G25G14G24G12G29
 121845681.830 7  94944673.02946  23186462.500    23186458.440          45.000
        40.500
 121030329.431 7  94309349.44146  23031305.320    23031304.240          45.500
        41.000
 108279442.290 8  84373634.33448  20604879.820    20604881.500          50.000
        48.750
 115468618.049 7  89975533.53746  21972947.460    21972946.940          46.750
        41.500
 123673936.219 6  96369338.78446  23534357.560    23534360.060          40.750
        39.000
 115037059.197 8  89639314.08547  21890800.400    21890799.460          48.250
        45.000
 106298785.351 8  82830255.89248  20227969.180    20227968.820          50.500
        50.750
 14  1 10  0 39  0.0000000  0  7G02G31G25G14G24G12G29
 121864410.172 7  94959266.54946  23190026.360    23190022.220          45.250
        38.500
 120941988.948 7  94240512.69746  23014494.600    23014493.520          45.500
        40.500
 108280002.937 8  84374071.20548  20604986.460    20604988.220          50.000
        49.000
 115510386.813 7  90008080.61946  21980895.820    21980895.360          46.750
        41.750
 123772378.118 6  96446046.75946  23553090.300    23553092.940          41.000
        38.750
 115092486.994 8  89682504.56247  21901347.820    21901347.000          48.250
        45.250
 106269874.595 8  82807728.03448  20222467.600    20222467.240          50.250
        51.000
 14  1 10  0 39 30.0000000  0  7G02G31G25G14G24G12G29
 121883631.307 7  94974244.06546  23193684.000    23193679.920          45.750
        39.250
 120853805.593 7  94171798.39246  22997713.860    22997712.740          45.500
        41.000
 108280780.314 8  84374676.94848  20605134.440    20605136.160          50.250
        49.000
 115552653.978 7  90041016.06246  21988939.000    21988938.520          46.250
        41.500
 123871026.061 6  96522915.26846  23571862.340    23571865.120          41.000
        39.750
 115148040.985 8  89725793.37447  21911919.340    21911918.540          48.000
        44.750
 106241465.505 8  82785591.09048  20217061.460    20217061.120          50.500
        51.000
 14  1 10  0 40  0.0000000  0  7G02G31G25G14G24G12G29
 121903345.922 7  94989606.12546  23197435.560    23197431.420          45.250
        39.500
 120765782.467 7  94103208.97646  22980963.580    22980962.540          45.750
        40.500
 108281775.397 8  84375452.34148  20605323.880    20605325.560          50.250
        48.750
 115595419.010 7  90074339.45346  21997076.840    21997076.420          46.500
        41.250
 123969879.064 6  96599943.57046  23590673.460    23590676.280          40.500
        38.750
 115203721.467 8  89769180.75947  21922514.940    21922514.080          48.250
        44.250
 106213558.629 8  82763845.48048  20211750.900    20211750.660          50.500
        50.750
 14  1 10  0 40 30.0000000  0  7G02G31G25G14G24G12G29
 121923554.724 7  95005353.26246  23201281.040    23201277.020          44.750
        39.500
 120677922.875 7  94034746.95846  22964244.420    22964243.300          45.000
        41.500
 108282989.300 8  84376398.23148  20605554.900    20605556.660          50.000
        49.000
 115638680.682 7  90108049.84346  22005309.160    22005308.800          46.500
        40.500
 124068937.129 6  96677131.66246  23609523.580    23609526.420          40.500
        38.500
 115259529.544 7  89812667.55047  21933134.740    21933133.900          47.750
        44.500
