     2.11           OBSERVATION DATA    G (GPS)             RINEX VERSION / TYPE
teqc  2015Nov6      RinexTools-CRAAG    20161009 23:03:49UTCPGM / RUN BY / DATE
Linux2.4.20-8|i386|gcc|Win32-MinGW32|=                      COMMENT
BIT 2 OF LLI FLAGS DATA COLLECTED UNDER A/S CONDITION       COMMENT
ABZH                                                        MARKER NAME
ABZH                                                        MARKER NUMBER
-Unknown-           C.R.A.A.G.                              OBSERVER / AGENCY
462405              LEICA GRX1200PRO    8.20/2.127          REC # / TYPE / VERS
                    LEIAT504        NONE                    ANT # / TYPE
  5106718.0001   270608.4113  3799529.0032                  APPROX POSITION XYZ
        0.0770        0.0000        0.0000                  ANTENNA: DELTA H/E/N
     1     1                                                WAVELENGTH FACT L1/2
     6    L1    L2    C1    P2    S1    S2                  # / TYPES OF OBSERV
    30.0000                                                 INTERVAL
SPIDER                                                      COMMENT
Made by Spider v4.0.0                                       COMMENT
Project creator:                                            COMMENT
                                                            COMMENT
 SNR is mapped to RINEX snr flag value [0-9]                COMMENT
  L1 & L2: min(max(int(snr_dBHz/6), 0), 9)                  COMMENT
teqc edited: all GLONASS satellites excluded                COMMENT
  2014     1     9     7    37    0.0000000     GPS         TIME OF FIRST OBS
                                                            END OF HEADER
 14  1  9  7 37  0.0000000  0 11G19G06G11G16G32G01G27G18G22G03G14
 108872133.331 8  84835414.72948  20717675.840    20717673.640          49.750
        49.500
 110827602.462 8  86359167.97847  21089791.280    21089792.240          49.250
        46.250
 114995272.101 8  89606703.81746  21882873.520    21882872.560          48.000
        40.750
 121030166.604 7  94309209.08346  23031280.460    23031281.580          45.000
        39.250
 118551712.152 7  92377962.72646  22559639.480    22559641.300          45.750
        39.000
 122373461.868 7  95355973.70446  23286898.920    23286902.980          42.000
        41.500
 108084758.779 8  84221899.54748  20567845.600    20567847.600          50.500
        50.250
 129900960.045 6 101221526.95244  24719337.200    24719335.840          39.500
        24.000
 114860680.022 8  89501824.51447  21857260.760    21857257.360          48.750
        44.250
 104557836.266 8  81473641.33548  19896695.380    19896695.860          50.750
        48.500
 124718131.215 6  97182974.55245  23733071.060    23733073.720          41.500
        34.000
 14  1  9  7 37 30.0000000  0 11G19G06G11G16G32G01G27G18G22G03G14
 108837750.961 8  84808623.27048  20711133.080    20711130.960          49.500
        49.500
 110877163.133 8  86397786.65947  21099222.360    21099223.340          49.250
        46.500
 114926781.786 8  89553334.73946  21869840.320    21869839.380          48.000
        40.750
 121131697.232 7  94388323.80246  23050601.140    23050602.140          45.000
        39.500
 118448925.779 7  92297869.48346  22540079.800    22540081.700          45.500
        40.000
 122301585.774 7  95299966.34946  23273221.320    23273225.480          42.500
        40.750
 108114088.674 8  84244753.99148  20573426.900    20573428.880          50.500
        50.000
 129992963.551 6 101293217.90544  24736845.020    24736843.360          39.750
        26.500
 114924749.598 8  89551748.83347  21869452.780    21869449.400          48.500
        43.750
 104578185.871 8  81489498.14848  19900567.840    19900568.240          50.750
        48.500
 124657877.073 6  97136023.27446  23721605.220    23721607.540          41.000
        37.500
 14  1  9  7 38  0.0000000  0 11G19G06G11G16G32G01G27G18G22G03G14
 108803693.263 8  84782084.80048  20704652.100    20704650.040          49.500
        49.500
 110927083.718 8  86436685.79447  21108721.940    21108722.920          49.500
        46.250
 114858478.446 7  89500111.35146  21856842.640    21856841.780          47.750
        41.500
 121233417.067 7  94467585.92546  23069957.800    23069958.640          45.000
        38.750
 118346432.043 7  92218004.28146  22520575.740    22520577.780          45.500
        40.500
 122229853.187 7  95244070.82946  23259571.080    23259575.340          43.000
        40.000
 108143831.047 8  84267929.84648  20579086.680    20579088.640          50.750
        50.000
 130085076.579 6 101364994.06544  24754373.820    24754371.460          39.000
        28.750
 114989183.464 8  89601957.01147  21881714.120    21881710.840          48.750
        44.500
 104599046.157 8  81505752.89048  19904537.440    19904537.840          50.750
        48.250
 124597910.069 6  97089295.77345  23710194.100    23710196.040          41.250
        33.500
 14  1  9  7 38 30.0000000  0 11G19G06G11G16G32G01G27G18G22G03G14
 108769962.115 8  84755800.78048  20698233.300    20698231.200          49.750
        49.250
 110977364.026 8  86475865.23747  21118289.960    21118290.920          49.250
        46.250
 114790362.955 7  89447034.33247  21843880.600    21843879.900          47.250
        42.000
 121335323.495 7  94546993.45846  23089350.120    23089350.700          45.750
        38.750
 118244233.671 7  92138369.21546  22501127.900    22501129.940          46.000
        39.250
 122158264.361 7  95188287.29046  23245948.180    23245952.460          43.250
        41.000
 108173986.422 8  84291427.50848  20584825.100    20584827.060          50.750
        50.000
 130177297.181 6 101436854.13143  24771923.020    24771920.540          38.500
        20.250
 115053979.578 8  89652447.45947  21894044.480    21894041.300          48.750
        44.250
 104620417.493 8  81522405.85648  19908604.260    19908604.680          50.500
        48.750
 124538233.305 6  97042794.40745  23698838.040    23698839.900          41.750
        35.500
 14  1  9  7 39  0.0000000  0 11G19G06G11G16G32G01G27G18G22G03G14
 108736558.763 8  84729772.18048  20691876.880    20691874.680          49.750
        49.500
 111028003.752 8  86515324.74947  21127926.420    21127927.340          49.250
        46.000
 114722435.242 7  89394103.65546  21830954.300    21830953.720          47.500
        41.500
 121437413.229 7  94626543.83346  23108777.420    23108777.760          45.500
        38.500
 118142332.614 7  92058965.82646  22481736.640    22481738.620          45.500
        39.500
 122086818.809 7  95132615.43546  23232352.680    23232356.760          43.500
        41.000
 108204554.561 8  84315246.81248  20590642.120    20590644.040          50.750
        50.250
 130269623.298 6 101508796.28845  24789492.300    24789489.880          38.000
        32.500
 115119135.228 8  89703218.07147  21906443.220    21906440.060          48.500
        44.000
 104642299.414 8  81539456.68548  19912768.260    19912768.680          50.500
        48.750
 124478848.675 6  96996520.65945  23687537.600    23687539.380          41.500
        34.500
 14  1  9  7 39 30.0000000  0 11G19G06G11G16G32G01G27G18G22G03G14
 108703485.146 8  84704000.52948  20685583.220    20685581.040          49.750
        49.500
 111079002.891 8  86555064.31247  21137631.260    21137632.160          49.250
        46.000
 114654696.986 7  89341320.59946  21818064.120    21818063.640          47.500
        41.250
 121539684.399 7  94706235.57346  23128239.200    23128239.280          45.500
        39.000
 118040732.118 7  91979796.66046  22462402.620    22462404.540          46.250
        39.000
 122015517.329 7  95077055.82246  23218784.540    23218788.440          43.500
        39.500
 108235536.532 8  84339388.58548  20596537.840    20596539.760          50.750
        50.000
 130362053.166 6 101580819.39442  24807081.280    24807078.940          38.500
        13.500
 115184648.970 8  89754267.71947  21918910.180    21918907.060          48.750
        44.250
 104664692.896 8  81556906.12948  19917029.620    19917030.040          50.500
        48.500
 124419759.957 6  96950477.46845  23676293.400    23676295.080          41.250
        34.500
 14  1  9  7 40  0.0000000  0 11G19G06G11G16G32G01G27G18G22G03G14
 108670742.100 8  84678486.46348  20679352.460    20679350.240          49.750
        49.500
 111130360.569 8  86595083.26447  21147404.340    21147405.200          49.250
        46.250
 114587147.987 7  89288685.01947  21805209.940    21805209.540          47.500
        42.250
 121642132.721 7  94786065.35546  23147734.680    23147734.460          45.500
        38.250
 117939433.818 7  91900862.96346  22443126.140    22443127.980          45.750
        40.000
 121944359.249 7  95021607.94846  23205243.740    23205247.460          43.500
        40.250
 108266931.890 8  84363852.47048  20602512.180    20602514.100          50.500
        50.250
 130454584.159 6 101652921.29644  24824689.540    24824687.360          38.750
        25.250
 115250518.102 8  89805594.28547  21931444.760    21931441.780          48.750
        44.250
 104687597.331 8  81574753.72248  19921388.220    19921388.680          50.500
        48.500
 124360969.290 6  96904666.51346  23665105.820    23665107.600          41.000
        36.250
 14  1  9  7 40 30.0000000  0 11G19G06G11G16G32G01G27G18G22G03G14
 108638331.228 8  84653231.23948  20673184.880    20673182.620          49.750
        49.750
 111182076.749 8  86635381.57547  21157245.680    21157246.480          49.500
        46.000
 114519789.003 7  89236197.49546  21792392.040    21792391.500          47.500
        41.500
 121744755.797 7  94866031.30846  23167263.320    23167263.080          45.250
        38.500
 117838440.379 7  91822166.78646  22423907.780    22423909.520          46.250
        40.000
 121873344.773 7  94966271.97846  23191730.120    23191733.960          43.250
        40.500
 108298741.088 8  84388638.83348  20608565.340    20608567.240          50.750
        50.000
 130547214.882 6 101725100.84344  24842316.760    24842314.740          38.500
        27.750
 115316740.579 8  89857196.18947  21944046.480    21944043.680          48.500
        44.250
 104711012.789 8  81592999.51148  19925844.080    19925844.540          50.750
        48.750
 124302479.589 6  96859090.10846  23653975.520    23653977.460          40.750
        36.250
 14  1  9  7 41  0.0000000  0 11G19G06G11G16G32G01G27G18G22G03G14
 108606253.417 8  84628235.53648  20667080.680    20667078.420          49.750
        49.250
 111234150.591 8  86675958.56747  21167155.120    21167155.800          49.500
        46.000
 114452620.272 7  89183858.23946  21779610.260    21779609.620          47.250
        41.750
 121847550.418 7  94946130.94546  23186824.540    23186824.440          45.750
        38.750
 117737753.736 7  91743709.69346  22404747.800    22404749.500          45.500
        39.750
 121802473.325 7  94911047.47246  23178243.780    23178247.540          43.000
        40.000
 108330963.783 8  84413747.40248  20614697.080    20614699.020          50.500
        50.000
 130639942.405 6 101797355.91745  24859962.380    24859960.740          39.000
        32.250
 115383313.670 8  89909071.30447  21956714.860    21956712.200          48.500
        44.000
 104734938.994 8  81611643.28748  19930397.160    19930397.560          50.750
        48.750
 124244292.043 6  96813741.89946  23642903.380    23642904.480          40.750
        37.500
 14  1  9  7 41 30.0000000  0 11G19G06G11G16G32G01G27G18G22G03G14
 108574511.334 8  84603501.43748  20661040.300    20661038.120          49.750
        49.500
 111286583.309 8  86716815.20047  21177132.780    21177133.420          49.250
        45.750
 114385643.981 7  89131668.91747  21766864.960    21766864.440          47.000
        42.500
 121950515.384 7  95026363.31746  23206418.100    23206418.240          44.500
        38.000
 117637377.837 7  91665494.72746  22385646.880    22385648.500          46.000
        40.250
 121731746.510 7  94855935.67046  23164784.880    23164788.660          43.250
        40.000
 108363601.810 8  84439179.60048  20620907.840    20620909.860          50.500
        50.000
 130732766.671 6 101869686.30344  24877626.420    24877625.160          39.000
        29.000
 115450236.802 8  89961219.17847  21969449.860    21969447.220          48.250
        43.750
 104759377.269 8  81630686.07648  19935047.640    19935047.980          50.750
        48.500
 124186412.764 6  96768641.15245  23631889.260    23631890.480          41.750
        35.750
 14  1  9  7 42  0.0000000  0 11G19G06G11G16G32G01G27G18G22G03G14
 108543105.731 8  84579029.54348  20655064.020    20655061.880          49.750
        49.750
 111339372.799 8  86757949.84547  21187178.260    21187178.960          49.000
        46.000
 114318859.277 7  89079628.88446  21754156.180    21754155.740          47.500
        41.750
 122053646.064 7  95106724.79646  23226043.080    23226043.680          44.750
        38.250
 117537313.719 7  91587522.71046  22366605.300    22366606.900          46.250
        40.500
 121661162.881 7  94800935.41546  23151353.180    23151357.060          43.250
        40.000
 108396653.875 8  84464934.43048  20627197.440    20627199.500          50.500
        50.000
 130825683.844 6 101942089.10644  24895308.140    24895307.200          38.250
        25.500
 115517506.243 8  90013636.90647  21982250.780    21982248.120          48.250
        43.500
 104784326.511 8  81650127.01948  19939795.320    19939795.640          50.750
        48.500
 124128841.974 7  96723780.77845  23620934.000    23620935.400          42.500
        32.750
 14  1  9  7 42 30.0000000  0 10G19G06G11G16G32G01G27G22G03G14
 108512036.585 8  84554819.81748  20649151.740    20649149.580          49.750
        49.500
 111392517.827 8  86799361.53147  21197291.320    21197292.100          49.250
        45.750
 114252265.818 7  89027737.87646  21741483.900    21741483.480          47.500
        41.250
 122156938.505 7  95187212.34546  23245698.840    23245699.800          45.000
        36.750
 117437562.463 7  91509794.47846  22347623.240    22347624.880          46.250
        40.750
 121590721.251 7  94746045.83746  23137948.580    23137952.560          43.500
        40.500
 108430119.040 8  84491011.14248  20633565.680    20633567.740          50.500
        50.000
 115585118.588 8  90066321.82647  21995116.940    21995114.340          48.000
        44.000
 104809785.474 8  81669965.14948  19944640.020    19944640.360          50.750
        48.500
 124071581.526 7  96679162.24545  23610037.680    23610039.240          42.000
        35.250
 14  1  9  7 43  0.0000000  0 10G19G06G11G16G32G01G27G22G03G14
 108481315.913 8  84530881.63148  20643305.800    20643303.680          50.000
        49.750
 111446028.571 8  86841058.19247  21207474.000    21207474.820          49.000
        45.750
 114185874.764 7  88976004.59447  21728850.080    21728849.740          47.000
        42.250
 122260400.829 7  95267832.26146  23265386.960    23265388.160          44.250
        38.250
 117338137.362 7  91432320.39346  22328703.340    22328704.960          46.500
        40.250
 121520432.377 7  94691275.25546  23124572.960    23124577.040          43.500
        39.250
 108464008.235 8  84517418.28148  20640014.640    20640016.700          50.750
        50.000
 115653082.248 8  90119280.49247  22008049.960    22008047.480          48.250
        43.750
 104835764.698 8  81690208.67648  19949583.720    19949584.100          50.750
        48.500
 124014644.712 6  96634795.83746  23599202.880    23599204.580          41.750
        36.250
 14  1  9  7 43 30.0000000  0 10G19G06G11G16G32G01G27G22G03G14
 108450930.260 8  84507204.50148  20637523.640    20637521.500          50.000
        49.750
 111499890.070 8  86883028.16047  21217723.460    21217724.340          49.250
        45.500
 114119672.019 7  88924418.04947  21716252.060    21716251.920          47.250
        43.000
 122364014.718 7  95348570.28146  23285103.980    23285105.400          45.000
        38.250
 117239025.859 7  91355090.67846  22309843.080    22309844.700          46.000
        41.250
 121450281.484 7  94636612.21446  23111223.700    23111227.660          43.750
        40.500
 108498306.840 8  84544144.43648  20646541.540    20646543.560          50.750
        49.750
 115721380.378 7  90172499.77547  22021046.620    22021044.340          47.750
        44.000
 104862249.034 8  81710845.80048  19954623.520    19954623.960          50.500
        48.750
 123958019.180 6  96590672.03345  23588427.260    23588429.240          41.500
        35.250
 14  1  9  7 44  0.0000000  0 10G19G06G11G16G32G01G27G22G03G14
 108420884.973 8  84483792.58348  20631806.200    20631804.060          49.750
        49.750
 111554105.659 8  86925274.04947  21228040.320    21228041.280          49.000
        45.750
 114053662.107 7  88872981.77746  21703690.760    21703690.720          47.500
        41.500
 122467781.431 7  95429427.38646  23304850.220    23304851.600          44.500
        39.250
 117140234.061 7  91278110.07946  22291043.580    22291045.220          46.250
        40.250
 121380272.278 7  94582059.55746  23097901.380    23097905.320          43.250
        41.000
 108533018.580 8  84571192.51448  20653147.020    20653149.020          50.500
        49.750
 115790014.502 8  90225980.89047  22034107.240    22034105.100          48.000
        44.000
 104889242.477 8  81731879.63048  19959760.200    19959760.620          50.750
        48.500
 123901711.369 6  96546795.80546  23577712.260    23577714.260          41.750
        36.250
 14  1  9  7 44 30.0000000  0 10G19G06G11G16G32G01G27G22G03G14
 108391184.085 8  84460649.03048  20626154.320    20626152.200          50.000
        49.750
 111608677.108 8  86967797.22547  21238424.940    21238425.940          49.000
        46.000
 113987848.251 8  88821698.27147  21691166.820    21691166.760          48.000
        42.250
 122571700.958 7  95510403.55746  23324625.500    23324626.760          44.250
        37.250
 117041766.917 7  91201382.44746  22272305.880    22272307.460          46.500
        40.250
 121310407.186 7  94527619.20947  23084606.420    23084610.500          42.500
        42.000
 108568146.311 8  84598564.74248  20659831.620    20659833.600          50.500
        50.000
 115858984.922 8  90279724.04347  22047231.920    22047229.800          48.250
        44.000
 104916747.737 8  81753312.27448  19964994.300    19964994.700          50.750
        48.500
 123845726.510 7  96503171.26645  23567058.800    23567060.580          42.250
        35.000
 14  1  9  7 45  0.0000000  0 10G19G06G11G16G32G01G27G22G03G14
 108361827.242 8  84437773.55948  20620567.980    20620565.840          50.000
        50.000
 111663602.925 8  87010596.53747  21248877.080    21248878.020          49.250
        46.000
 113922229.637 8  88770566.88846  21678680.100    21678679.920          48.000
        41.750
 122675768.754 7  95591495.25446  23344429.000    23344430.100          44.250
        37.750
 116943625.486 7  91124908.62546  22253630.120    22253631.740          46.500
        40.250
 121240685.046 7  94473290.26747  23071338.760    23071343.020          43.750
        42.250
 108603688.794 8  84626260.14648  20666595.120    20666597.120          50.500
        50.000
 115928287.925 8  90333726.34447  22060419.940    22060417.720          48.000
        43.750
 104944763.141 8  81775142.42748  19970325.480    19970325.920          50.750
        48.750
 123790066.044 7  96459799.51745  23556467.080    23556468.440          42.750
        35.000
 14  1  9  7 45 30.0000000  0 10G19G06G11G16G32G01G27G22G03G14
 108332817.738 8  84415168.74348  20615047.700    20615045.540          49.750
        50.000
 111718883.841 8  87053672.53847  21259396.840    21259397.660          49.250
        45.750
 113856808.253 8  88719589.19447  21666230.920    21666230.540          48.000
        42.000
 122779983.209 7  95672701.24346  23364260.420    23364261.400          43.750
        39.000
 116845813.466 7  91048691.49546  22235016.980    22235018.740          46.500
        40.750
 121171107.013 7  94419073.61646  23058098.600    23058102.840          43.750
        40.000
 108639647.385 8  84654279.80148  20673437.800    20673439.900          50.500
        50.000
 115997922.660 8  90387987.14847  22073671.020    22073668.800          48.000
        44.000
 104973289.822 8  81797370.98448  19975753.940    19975754.420          50.750
        48.500
 123734734.042 7  96416683.70645  23545937.840    23545939.060          42.250
        35.750
 14  1  9  7 46  0.0000000  0 10G19G06G11G16G32G01G27G22G03G14
 108304158.625 8  84392836.95448  20609594.080    20609591.860          50.000
        49.750
 111774521.090 8  87097026.21047  21269984.360    21269985.080          49.000
        45.750
 113791586.449 7  88668767.00546  21653819.640    21653819.080          47.750
        41.750
 122884342.832 7  95754020.34046  23384119.460    23384120.260          44.000
        38.250
 116748334.555 7  90972733.92246  22216467.280    22216469.080          46.000
        41.250
 121101674.625 7  94364970.45246  23044886.080    23044890.160          43.500
        41.500
 108676023.716 8  84682624.95948  20680360.000    20680362.180          50.500
        50.000
 116067888.305 7  90442505.78347  22086985.020    22086982.820          47.750
        43.500
 105002329.240 8  81819999.07348  19981279.940    19981280.400          50.750
        48.250
 123679734.404 7  96373826.92545  23535471.780    23535473.080          42.750
        35.750
 14  1  9  7 46 30.0000000  0 10G19G06G11G16G32G01G27G22G03G14
 108275848.650 8  84370777.22348  20604206.880    20604204.660          49.750
        49.750
 111830511.798 8  87140655.29747  21280639.060    21280639.840          49.000
        46.000
 113726562.464 8  88618098.96946  21641445.940    21641445.280          48.000
        41.750
 122988842.615 7  95835448.66246  23404005.160    23404005.880          43.500
        38.000
 116651188.831 7  90897035.98346  22197981.000    22197982.840          46.750
        41.000
 121032385.519 7  94310978.95346  23031700.920    23031704.740          43.500
        40.750
 108712815.551 8  84711293.89548  20687361.300    20687363.520          50.750
        49.750
 116138180.369 7  90497278.79347  22100361.120    22100359.020          47.750
        43.500
 105031878.778 8  81843024.66448  19986903.000    19986903.460          50.750
        48.500
 123625067.713 7  96331229.56345  23525068.900    23525070.380          42.000
        33.500
 14  1  9  7 47  0.0000000  0 10G19G06G11G16G32G01G27G22G03G14
 108247890.511 8  84348991.64248  20598886.540    20598884.360          50.000
        49.750
 111886856.698 8  87184560.38947  21291361.100    21291362.020          49.250
        45.750
 113661738.199 8  88567586.54647  21629110.280    21629109.580          48.000
        42.000
 123093480.987 7  95916984.96646  23423917.260    23423917.960          44.000
        38.000
 116554379.950 7  90821600.51046  22179558.840    22179560.680          46.250
        41.250
 120963241.095 7  94257100.18746  23018543.160    23018546.960          43.000
        41.250
 108750024.300 8  84740287.69648  20694441.960    20694444.120          50.500
        49.750
 116208798.045 7  90552305.50547  22113799.200    22113797.240          47.750
        43.500
 105061939.743 8  81866448.76648  19992623.460    19992623.880          50.750
        48.250
 123570737.682 7  96288894.53645  23514730.080    23514731.780          42.000
        35.750
 14  1  9  7 47 30.0000000  0 10G19G06G11G16G32G01G27G22G03G14
 108220285.274 8  84327481.05548  20593633.420    20593631.280          50.000
        50.000
 111943554.984 8  87228740.84347  21302150.460    21302151.420          49.000
        45.250
 113597113.917 8  88517229.94247  21616812.700    21616812.080          48.500
        42.250
 123198254.575 7  95998626.63546  23443855.040    23443855.880          43.750
        37.000
 116457909.807 7  90746428.99346  22161201.200    22161203.060          46.500
        41.250
 120894240.810 7  94203333.74847  23005412.860    23005416.700          43.000
        42.250
 108787649.608 8  84769606.08948  20701601.820    20701604.000          50.500
        50.000
 116279738.533 7  90607583.76647  22127298.640    22127296.860          47.500
        43.750
 105092511.561 8  81890270.93748  19998441.140    19998441.540          50.750
        48.500
 123516746.384 7  96246823.47845  23504455.780    23504457.600          42.500
        35.500
 14  1  9  7 50 30.0000000  3  0
 14  1  9  7 50 30.0000000  0 10G01G19G03G27G22G06G32G16G14G11
 120483280.864 7  93883093.96246  22927206.260    22927210.460          43.750
        41.500
 108062125.819 8  84204244.69048  20563539.220    20563536.920          50.000
        50.250
 105286655.315 8  82041552.26648  20035384.580    20035385.160          50.750
        48.500
 109022148.125 8  84952331.98548  20746225.140    20746227.360          50.250
        49.750
 116712032.386 7  90944434.59447  22209561.760    22209559.940          47.750
        44.000
 112291133.590 8  87499588.64347  21368292.380    21368293.560          48.750
        45.250
 115886314.299 7  90301031.91946  22052432.680    22052434.120          47.000
        41.750
 123829605.199 7  96490608.61046  23563991.120    23563991.980          43.500
        36.500
 123200052.270 7  96000046.62146  23444190.380    23444192.560          42.250
        38.250
 113213607.020 8  88218390.53347  21543833.260    21543832.880          48.750
        42.750
 14  1  9  7 51  0.0000000  0 10G01G19G03G27G22G06G32G16G14G11
 120415288.861 7  93830113.19146  22914267.860    22914271.920          44.000
        41.500
 108037029.188 8  84184688.85648  20558763.440    20558761.200          50.000
        50.250
 105320794.923 8  82068154.53248  20041881.160    20041881.720          50.750
        48.500
 109062689.207 8  84983922.40248  20753939.860    20753942.080          50.500
        49.500
 116785169.266 7  91001424.32647  22223479.300    22223477.440          47.750
        43.750
 112350290.714 8  87545685.07347  21379549.660    21379550.700          49.000
        45.000
 115792278.687 7  90227757.45146  22034538.340    22034539.760          47.000
        41.750
 123935244.560 7  96572924.90145  23584093.780    23584094.460          43.000
        35.000
 123148503.980 7  95959879.18746  23434380.880    23434383.280          42.500
        36.500
 113150401.786 8  88169139.69847  21531805.660    21531805.280          48.750
        43.250
 14  1  9  7 51 30.0000000  0 10G01G19G03G27G22G06G32G16G14G11
 120347442.462 7  93777245.86546  22901357.100    22901361.140          44.500
        41.250
 108012298.038 8  84165417.81748  20554057.240    20554055.080          50.000
        50.500
 105355444.525 8  82095154.20348  20048474.780    20048475.280          50.750
        48.250
 109103648.365 8  85015838.59648  20761734.140    20761736.340          50.250
        49.750
 116858612.643 7  91058652.88447  22237455.120    22237453.160          47.500
        43.500
 112409798.421 8  87592054.68747  21390873.660    21390874.540          49.000
        45.250
 115698601.473 7  90154762.24946  22016712.200    22016713.500          47.000
        41.500
 124040997.658 7  96655329.80646  23604218.020    23604218.680          42.750
        38.250
 123097316.416 7  95919992.84846  23424639.960    23424642.500          42.250
        36.250
 113087403.751 8  88120050.32647  21519817.500    21519817.120          48.750
        42.750
 14  1  9  7 52  0.0000000  0 10G01G19G03G27G22G06G32G16G14G11
 120279736.924 7  93724488.33346  22888473.220    22888477.140          44.500
        40.250
 107987929.337 8  84146429.20348  20549420.020    20549417.900          50.000
        50.250
 105390598.892 8  82122547.19748  20055164.440    20055164.980          50.750
        48.500
 109145020.891 8  85048076.89648  20769607.080    20769609.320          50.250
        49.500
 116932355.476 7  91116114.79147  22251487.920    22251485.860          47.750
        43.000
 112469651.638 8  87638693.51547  21402263.400    21402264.240          48.750
        45.000
 115605280.302 7  90082044.49247  21998953.760    21998955.040          47.250
        42.000
 124146857.127 7  96737817.60546  23624362.420    23624363.160          43.000
        37.250
 123046487.719 6  95880386.15646  23414967.560    23414969.900          41.750
        36.750
 113024609.099 8  88071119.42247  21507868.140    21507867.680          48.750
        42.500
 14  1  9  7 52 30.0000000  0 10G01G19G03G27G22G06G32G16G14G11
 120212175.571 7  93671843.14247  22875616.660    22875620.540          44.000
        42.000
 107963927.499 8  84127726.46548  20544852.600    20544850.560          50.000
        50.250
 105426261.354 8  82150336.10548  20061950.780    20061951.360          50.750
        48.250
 109186809.989 8  85080639.79448  20777559.320    20777561.560          50.500
        49.500
 117006398.513 8  91173810.62147  22265577.920    22265575.660          48.000
        42.750
 112529852.935 8  87685603.58247  21413719.360    21413720.300          48.750
        44.750
 115512320.582 7  90009608.38546  21981264.060    21981265.380          47.500
        41.500
 124252823.327 7  96820388.58445  23644527.120    23644527.980          43.000
        35.500
 122996023.435 7  95841063.44846  23405364.640    23405366.760          42.250
        37.000
 112962021.663 8  88022349.99947  21495958.220    21495957.700          48.500
        43.250
 14  1  9  7 53  0.0000000  0 10G01G19G03G27G22G06G32G16G14G11
 120144760.219 7  93619311.70947  22862787.880    22862791.740          44.500
        42.250
 107940295.670 8  84109312.03948  20540355.600    20540353.580          50.000
        50.250
 105462433.511 8  82178522.16848  20068834.100    20068834.720          50.500
        48.500
 109229017.438 8  85113528.69148  20785591.180    20785593.400          50.500
        49.500
 117080741.692 7  91231740.32647  22279725.040    22279722.560          47.750
        42.750
 112590403.627 8  87732785.90447  21425241.780    21425242.840          48.750
        45.250
 115419726.458 7  89937457.16746  21963643.880    21963645.360          47.000
        41.500
 124358895.180 7  96903041.85346  23664711.840    23664712.960          42.250
        37.000
 122945927.778 6  95802027.95146  23395831.860    23395833.800          41.500
        37.750
 112899644.051 8  87973744.05747  21484088.040    21484087.600          48.000
        43.750
 14  1  9  7 53 30.0000000  0 10G01G19G03G27G22G06G32G16G14G11
 120077487.751 7  93566891.61447  22849986.360    22849990.240          45.000
        42.250
 107917032.232 8  84091184.67348  20535928.700    20535926.680          50.000
        50.500
 105499111.630 8  82207102.50448  20075813.720    20075814.300          50.750
        48.500
 109271639.977 8  85146741.03148  20793702.000    20793704.220          50.250
        49.500
 117155379.757 7  91289899.79147  22293928.260    22293925.720          47.750
        42.500
 112651299.979 8  87780237.57047  21436829.940    21436831.120          48.750
        45.000
 115327496.891 7  89865590.02347  21946093.000    21946094.680          47.000
        42.250
 124465066.826 7  96985772.90646  23684915.600    23684916.940          43.000
        37.750
 122896200.205 7  95763279.28545  23386369.060    23386370.820          42.250
        32.750
 112837473.534 8  87925299.50547  21472257.300    21472256.920          48.250
        43.250
 14  1  9  7 54  0.0000000  0 10G01G19G03G27G22G06G32G16G14G11
 120010361.263 7  93514585.28247  22837212.620    22837216.480          45.250
        42.250
 107894141.371 8  84073347.62848  20531572.680    20531570.700          50.000
        50.500
 105536298.439 8  82236079.22048  20082890.180    20082890.740          50.750
        48.250
 109314680.733 8  85180279.24348  20801892.360    20801894.640          50.250
        49.500
 117230313.289 7  91348289.49747  22308187.740    22308185.100          47.750
        42.750
 112712544.401 8  87827960.46047  21448484.420    21448485.640          49.000
        45.000
 115235637.378 7  89794011.21147  21928612.580    21928614.400          47.250
        42.250
 124571338.439 7  97068581.84646  23705138.460    23705139.900          43.000
        36.500
 122846846.376 6  95724821.84846  23376977.200    23376978.980          41.750
        36.250
 112775514.435 8  87877019.69647  21460466.860    21460466.460          48.500
        43.000
 14  1  9  7 54 30.0000000  0 10G01G19G03G27G22G06G32G16G14G11
 119943379.372 7  93462391.60347  22824466.460    22824470.300          45.500
        43.000
 107871623.692 8  84055801.35948  20527287.740    20527285.680          50.250
        50.250
 105573992.115 8  82265450.89348  20090063.080    20090063.640          50.500
        48.500
 109358138.113 8  85214142.10048  20810162.000    20810164.260          50.500
        49.500
 117305538.719 7  91406906.65647  22322502.780    22322500.160          47.500
        43.000
 112774135.054 8  87875953.12947  21460204.820    21460205.960          48.750
        45.000
 115144148.575 7  89722721.28147  21911202.740    21911204.720          47.000
        42.750
 124677705.809 7  97151465.40746  23725379.620    23725381.240          43.000
        36.250
 122797867.348 6  95686656.46846  23367656.580    23367658.460          41.250
        37.750
 112713765.986 8  87828904.01447  21448716.580    21448716.040          48.500
        43.500
 14  1  9  7 55  0.0000000  0 10G01G19G03G27G22G06G32G16G14G11
 119876540.681 7  93410309.51047  22811747.500    22811751.320          45.250
        42.750
 107849478.846 8  84038545.62148  20523073.780    20523071.680          50.000
        50.500
 105612190.981 8  82295216.22248  20097332.080    20097332.700          50.750
        48.250
 109402010.644 8  85248328.45748  20818510.700    20818512.900          50.250
        49.500
 117381052.231 7  91465748.29647  22336872.560    22336869.940          47.250
        42.500
 112836070.013 8  87924214.09647  21471990.740    21471991.820          49.000
        44.750
 115053031.241 7  89651720.81247  21893863.620    21893865.620          47.500
        42.500
 124784164.551 7  97234420.16845  23745638.180    23745640.060          42.750
        35.750
 122749263.709 6  95648783.60546  23358407.460    23358409.380          41.750
        36.250
 112652227.414 8  87780951.88547  21437006.200    21437005.640          48.500
        43.750
 14  1  9  7 55 30.0000000  0 10G01G19G03G27G22G06G32G16G14G11
 119809846.185 7  93358339.76946  22799056.020    22799059.800          45.750
        41.750
 107827708.918 8  84021582.02548  20518931.180    20518929.060          50.250
        50.500
 105650895.415 8  82325375.50848  20104697.320    20104697.940          50.750
        48.250
 109446299.221 8  85282839.00648  20826938.560    20826940.760          50.250
        49.250
 117456852.628 7  91524813.47847  22351296.980    22351294.360          47.750
        42.750
 112898349.394 8  87972743.45047  21483842.200    21483843.240          48.750
        44.750
 114962288.684 7  89581012.37147  21876595.940    21876597.800          47.500
        42.500
 124890713.335 7  97317445.07445  23765913.880    23765915.920          42.500
        35.750
 122701039.696 7  95611206.55745  23349230.780    23349232.640          42.500
        35.750
 112590900.559 8  87733164.71547  21425336.080    21425335.540          48.500
        43.250
 14  1  9  7 56  0.0000000  0 10G01G19G03G27G22G06G32G16G14G11
 119743295.160 7  93306481.83646  22786391.760    22786395.540          45.000
        41.750
 107806314.904 8  84004911.35248  20514860.100    20514857.940          50.250
        50.500
 105690104.288 8  82355927.85648  20112158.520    20112159.140          50.500
        48.500
 109491002.883 8  85317673.00148  20835445.420    20835447.600          50.500
        49.000
 117532937.328 7  91584100.18147  22365775.560    22365772.900          47.500
        42.750
 112960971.754 8  88021540.05447  21495758.900    21495759.960          48.750
        44.750
 114871922.232 8  89510597.01046  21859399.860    21859401.500          48.000
        41.750
 124997348.129 7  97400537.02945  23786205.960    23786207.940          42.500
        35.000
 122653196.619 7  95573926.33946  23340126.680    23340128.400          42.250
        36.750
 112529785.306 8  87685542.44247  21413706.220    21413705.780          48.500
        43.750
 14  1  9  7 56 30.0000000  0 10G01G19G03G27G22G06G32G16G14G11
 119676889.702 7  93254737.33747  22773755.100    22773758.920          44.000
        43.500
 107785300.073 8  83988536.13648  20510861.120    20510858.920          50.250
        50.500
 105729819.534 8  82386874.77648  20119716.040    20119716.720          50.500
        48.500
 109536123.663 8  85352832.02248  20844031.660    20844033.820          50.250
        49.250
 117609305.640 7  91643607.87646  22380308.080    22380305.300          47.250
        41.750
 113023938.653 8  88070605.12947  21507741.160    21507742.220          48.750
        45.250
 114781936.200 7  89440478.06747  21842276.180    21842277.520          47.750
        42.000
 125104068.240 7  97483695.41045  23806514.280    23806516.260          43.000
        33.750
 122605739.145 7  95536946.57546  23331095.880    23331097.460          42.250
        36.750
 112468884.770 8  87638087.48447  21402117.200    21402116.900          48.500
        43.750
 14  1  9  7 57  0.0000000  0 10G01G19G03G27G22G06G32G16G14G11
 119610628.547 7  93203105.27547  22761145.900    22761149.880          43.750
        42.500
 107764664.450 8  83972456.41348  20506934.300    20506932.060          50.250
        50.500
 105770038.691 8  82418214.36048  20127369.480    20127370.200          50.750
        48.250
 109581660.028 8  85388314.87148  20852696.960    20852699.080          50.250
        49.250
 117685954.402 7  91703334.10547  22394893.900    22394891.000          47.500
        42.500
 113087248.170 8  88119937.17347  21519788.580    21519789.620          48.750
        44.500
 114692331.358 7  89370656.17347  21825224.980    21825226.180          47.750
        42.250
 125210869.705 7  97566917.22046  23826838.120    23826839.940          43.250
        36.500
 122558668.071 7  95500267.92346  23322138.560    23322139.980          42.250
        37.500
 112408198.341 8  87590799.35747  21390568.920    21390568.780          48.500
        43.750
 14  1  9  7 57 30.0000000  0 10G01G19G03G27G22G06G32G16G14G11
 119544512.361 7  93151586.17646  22748564.360    22748568.240          44.250
        41.500
 107744410.156 8  83956673.82648  20503080.040    20503077.820          50.000
        50.750
 105810762.144 8  82449946.89748  20135118.960    20135119.640          50.750
        48.500
 109627612.554 8  85424122.00348  20861441.500    20861443.600          50.250
        49.250
 117762882.015 7  91763277.64447  22409532.840    22409529.820          47.500
        42.250
 113150900.563 8  88169536.39747  21531901.260    21531902.220          48.500
        44.500
 114603110.652 7  89301133.59247  21808246.840    21808248.020          47.750
        42.500
 125317750.314 6  97650200.70946  23847176.980    23847178.400          41.750
        36.500
 122511986.816 7  95463892.99046  23313255.380    23313256.620          42.750
        36.000
 112347727.316 8  87543679.08847  21379061.720    21379061.660          48.750
        43.750
 14  1  9  7 58  0.0000000  0 10G01G19G03G27G22G06G32G16G14G11
 119478538.998 7  93100178.38846  22736010.000    22736013.840          44.250
        41.500
 107724536.355 8  83941187.73148  20499298.140    20499295.980          50.250
        50.750
 105851986.972 8  82482070.11748  20142963.840    20142964.520          50.750
        48.250
 109673978.812 8  85460251.52048  20870264.740    20870266.860          50.250
        49.250
 117840083.994 7  91823434.95847  22424223.960    22424221.040          47.500
        42.250
 113214892.493 8  88219400.19647  21544078.480    21544079.480          48.500
        44.750
 114514273.927 8  89231910.21147  21791341.760    21791343.060          48.000
        43.000
 125424705.493 7  97733542.28445  23867529.960    23867531.060          42.250
        33.250
 122465695.421 7  95427821.85446  23304446.320    23304447.420          42.000
        36.000
 112287470.276 8  87496725.55447  21367595.260    21367595.120          48.750
        44.000
 14  1  9  7 58 30.0000000  0 10G01G19G03G27G22G06G32G16G14G11
 119412712.789 7  93048885.25146  22723483.660    22723487.460          44.000
        41.000
 107705048.463 8  83926002.34148  20495589.700    20495587.540          50.250
        50.500
 105893717.088 8  82514587.07048  20150904.820    20150905.560          50.500
        48.500
 109720762.961 8  85496706.66648  20879167.520    20879169.640          50.250
        49.250
 117917562.253 7  91883807.55047  22438967.560    22438964.940          47.250
        43.000
 113279227.898 8  88269531.64147  21556321.120    21556322.140          48.750
        44.500
 114425827.645 7  89162991.08347  21774510.880    21774512.300          47.750
        42.750
 125531736.301 7  97816942.79145  23887897.280    23887898.300          42.500
        34.000
 122419800.440 7  95392059.57646  23295712.600    23295713.700          42.250
        36.750
 112227432.567 8  87449942.93047  21356170.480    21356170.240          48.750
        44.000
 14  1  9  7 59  0.0000000  0 10G01G19G03G27G22G06G32G16G14G11
 119347029.688 7  92997703.64646  22710984.580    22710988.320          44.250
        41.750
 107685944.055 8  83911115.77348  20491954.280    20491952.080          50.250
        50.750
 105935948.132 8  82547494.35748  20158941.100    20158941.920          50.750
        48.250
 109767960.678 8  85533484.07948  20888149.000    20888151.080          50.250
        49.000
 117995310.989 7  91944390.90047  22453762.720    22453760.280          47.500
        42.500
 113343901.888 8  88319926.91547  21568628.200    21568629.260          48.750
        44.250
 114337769.827 7  89094374.62947  21757753.960    21757755.420          47.750
        43.250
 125638835.666 7  97900396.70645  23908277.640    23908278.520          42.500
        34.750
 122374300.404 7  95356605.06846  23287054.000    23287055.300          42.250
        36.500
 112167610.791 8  87403328.55547  21344786.840    21344786.460          49.250
        44.000
 14  1  9  7 59 30.0000000  0 10G01G19G03G27G22G06G32G16G14G11
 119281489.630 7  92946633.45947  22698512.680    22698516.460          43.750
        42.250
 107667224.308 8  83896528.93248  20488392.040    20488389.800          50.000
        50.500
 105978679.277 8  82580791.33048  20167072.560    20167073.400          50.500
        48.250
 109815571.704 8  85570583.55048  20897209.120    20897211.160          50.250
        49.000
 118073327.358 7  92005182.83047  22468608.900    22468606.460          47.500
        42.500
 113408913.737 8  88370585.45147  21580999.600    21581000.640          48.500
        44.500
 114250102.506 7  89026062.46747  21741071.360    21741072.860          47.750
        43.000
 125746001.042 7  97983902.07545  23928670.660    23928671.300          42.500
        35.250
 122329197.664 7  95321460.08646  23278471.200    23278472.620          42.500
        37.500
 112108005.536 8  87356882.90047  21333444.380    21333443.880          49.250
        44.000
 14  1  9  8  0  0.0000000  0 10G01G19G03G27G22G06G32G16G14G11
 119216094.949 7  92895676.58946  22686068.440    22686072.300          43.750
        41.500
 107648892.797 8  83882244.62148  20484903.640    20484901.480          50.250
        50.750
 106021912.549 8  82614479.56948  20175299.580    20175300.400          50.500
        48.250
 109863598.054 8  85608006.64948  20906348.240    20906350.280          50.250
        49.000
 118151611.543 7  92066183.43446  22483505.960    22483503.500          47.000
        41.500
 113474265.024 8  88421508.48347  21593435.560    21593436.640          48.250
        44.750
 114162830.062 8  88958058.00047  21724463.940    21724465.480          48.250
        42.500
 125853231.975 6  98067458.49946  23949076.080    23949076.720          41.500
        36.000
 122284496.527 7  95286628.06646  23269964.940    23269966.420          42.500
        36.500
 112048619.943 8  87310608.39647  21322143.700    21322143.120          49.250
        44.000
 14  1  9  8  0 30.0000000  0 10G01G19G03G27G22G06G32G16G14G11
 119150844.960 7  92844832.44247  22673651.740    22673655.620          44.000
        42.000
 107630950.167 8  83868263.33148  20481489.240    20481487.160          50.250
        50.750
 106065646.344 8  82648557.82848  20183621.880    20183622.660          50.500
        48.000
 109912038.863 8  85645752.69948  20915566.260    20915568.320          50.250
        49.250
 118230160.865 7  92127390.64447  22498453.440    22498450.920          47.250
        42.250
 113539954.302 8  88472694.89347  21605935.860    21605936.980          48.500
        44.750
 114075953.968 8  88890362.38147  21707931.960    21707933.480          48.250
        42.750
 125960525.103 7  98151063.40545  23969493.380    23969494.060          42.000
        35.500
 122240198.954 7  95252110.49745  23261535.440    23261536.900          42.750
        35.500
 111989454.616 8  87264505.53147  21310884.920    21310884.260          49.250
        43.750
 14  1  9  8  1  0.0000000  0 10G01G19G03G27G22G06G32G16G14G11
 119085740.983 7  92794102.07847  22661262.780    22661266.720          44.500
        42.250
 107613398.787 8  83854586.91248  20478149.360    20478147.280          50.250
        50.500
 106109881.220 8  82683026.54048  20192039.560    20192040.320          50.750
        48.250
 109960895.133 8  85683822.48548  20924863.320    20924865.500          50.000
        49.250
 118308974.071 7  92188803.48147  22513451.140    22513448.700          47.000
        42.500
 113605982.015 8  88524145.01847  21618500.540    21618501.740          48.250
        44.500
 113989477.464 7  88822978.12147  21691476.000    21691477.480          47.750
        42.500
 126067878.633 6  98234715.38146  23989922.240    23989922.940          41.500
        36.250
 122196308.206 7  95217909.92746  23253183.200    23253184.760          42.250
        36.500
 111930511.045 8  87218575.47247  21299668.300    21299667.580          49.250
        44.000
 14  1  9  8  1 30.0000000  0 10G01G19G03G27G22G06G32G16G14G11
 119020780.941 7  92743483.87646  22648901.240    22648905.200          44.500
        41.250
 107596238.164 8  83841214.98248  20474883.820    20474881.780          50.250
        50.750
 106154614.512 8  82717883.62948  20200552.120    20200552.840          50.750
        48.250
 110010164.396 8  85722214.08748  20934238.940    20934241.260          50.250
        49.000
 118388047.362 7  92250418.96547  22528498.260    22528496.040          47.000
        42.250
 113672345.491 8  88575856.77247  21631129.140    21631130.400          48.250
        44.500
 113903400.516 8  88755905.20647  21675096.000    21675097.480          48.000
        42.750
 126175287.738 7  98318410.66545  24010361.700    24010362.440          42.000
        35.500
 122152824.470 7  95184026.50746  23244908.400    23244910.180          42.000
        36.750
 111871788.092 8  87172817.31847  21288493.600    21288492.960          49.000
        44.250
 14  1  9  8  2  0.0000000  0 10G01G19G03G27G22G06G32G16G14G11
 118955966.058 7  92692978.81147  22636567.280    22636571.300          44.000
        42.500
 107579470.733 8  83828149.43548  20471693.160    20471691.100          50.500
        50.750
 106199846.799 8  82753129.54448  20209159.600    20209160.240          50.750
        48.000
 110059847.690 8  85760928.31248  20943693.360    20943695.700          50.000
        49.000
 118467379.122 7  92312235.88446  22543594.600    22543592.380          47.250
        41.500
 113739045.228 8  88627830.54647  21643821.720    21643823.020          48.500
        44.500
 113817726.459 7  88689146.23747  21658792.620    21658794.140          47.750
        43.500
 126282750.917 6  98402148.08445  24030811.420    24030812.280          41.250
        35.250
 122109751.760 7  95150463.35646  23236711.860    23236713.600          42.250
        38.000
 111813287.860 8  87127232.71947  21277361.300    21277360.780          49.250
        44.500
 14  1  9  8  2 30.0000000  0 10G01G19G03G27G22G06G32G16G14G11
 118891294.397 7  92642585.32747  22624260.640    22624264.720          45.000
        42.750
 107563095.890 8  83815389.80348  20468577.220    20468575.040          50.500
        50.750
 106245575.385 8  82788762.18448  20217861.480    20217862.060          50.750
        48.000
 110109942.671 8  85799963.32748  20953226.140    20953228.480          50.250
        49.000
 118546965.426 7  92374251.14946  22558739.420    22558737.100          47.250
        41.750
 113806078.371 8  88680064.11747  21656577.760    21656579.040          48.500
        44.000
 113732455.240 7  88622701.16447  21642565.860    21642567.460          47.750
        43.000
 126390263.419 6  98485923.92945  24051270.420    24051271.720          41.500
        35.500
 122067089.851 7  95117220.28645  23228593.540    23228595.240          42.250
        35.500
 111755009.185 8  87081820.76947  21266271.220    21266270.780          49.500
        44.000
 14  1  9  8  3  0.0000000  0 10G01G19G03G27G22G06G32G16G14G11
 118826766.405 7  92592303.77147  22611981.440    22611985.520          45.750
        42.500
 107547115.062 8  83802937.19548  20465536.240    20465533.940          50.250
        50.750
 106291799.948 8  82824781.30248  20226657.680    20226658.300          50.750
        48.000
 110160449.455 8  85839319.23348  20962837.260    20962839.580          50.250
        48.750
 118626804.725 7  92436463.54946  22573932.360    22573930.020          47.000
        41.750
 113873444.699 8  88732557.31547  21669397.240    21669398.360          48.250
        44.250
 113647589.328 8  88556571.90747  21626416.320    21626417.880          48.000
        43.250
 126497822.981 6  98569736.43345  24071738.340    24071739.960          41.250
        34.500
 122024841.862 7  95084299.75146  23220554.080    23220555.540          42.500
        36.750
 111696953.288 8  87036582.40647  21255223.660    21255223.200          49.500
        44.250
 14  1  9  8  3 30.0000000  0 10G01G19G03G27G22G06G32G16G14G11
 118762382.073 7  92542134.15047  22599729.640    22599733.600          46.000
        43.000
 107531529.596 8  83790792.65848  20462570.400    20462568.080          50.500
        50.750
 106338519.710 8  82861186.28648  20235548.160    20235548.780          50.500
        48.000
 110211367.691 8  85878995.74348  20972526.700    20972528.960          50.000
        48.750
 118706894.217 7  92498870.88446  22589172.880    22589170.560          46.750
        41.500
 113941143.201 8  88785309.35347  21682279.900    21682280.860          48.250
        44.250
 113563130.701 7  88490760.01447  21610344.340    21610345.880          47.750
        43.750
 126605426.716 7  98653583.37345  24092214.760    24092216.640          42.250
        33.500
 121983009.622 7  95051703.20946  23212593.900    23212595.040          43.250
        36.000
 111639120.900 8  86991518.19347  21244218.600    21244218.080          49.250
        44.250
 14  1  9  8  4  0.0000000  0 11G01G19G03G27G22G06G32G16G14G20G11
 118698149.291 7  92492082.64447  22587506.700    22587510.520          46.000
        42.750
 107516348.001 8  83778962.81948  20459681.500    20459679.160          50.500
        51.000
 106385742.029 8  82897982.87648  20244534.260    20244534.920          50.500
        48.250
 110262704.905 8  85918998.73448  20982295.920    20982298.100          50.250
        48.750
 118787239.728 7  92561477.71846  22604462.160    22604459.800          47.000
        41.500
 114009180.886 8  88838325.68647  21695227.100    21695227.940          48.250
        44.250
 113479089.175 8  88425273.13147  21594351.760    21594353.340          48.000
        43.250
 126713079.646 6  98737468.63446  24112700.480    24112702.620          41.500
        36.500
 121941603.427 7  95019438.60246  23204714.740    23204715.660          43.500
        36.750
 129580082.004 6 100971502.49345  24658270.780    24658273.220          39.000
        30.750
 111581520.848 8  86946635.03347  21233257.700    21233257.160          49.250
        44.000
 14  1  9  8  4 30.0000000  0 11G01G19G03G27G22G06G32G16G14G20G11
 118634048.206 7  92442133.75847  22575308.700    22575312.540          46.000
        42.750
 107501552.980 8  83767434.22048  20456866.080    20456863.800          50.250
        50.750
 106433446.084 8  82935154.83248  20253612.020    20253612.740          50.500
        48.250
 110314440.768 8  85959312.36148  20992141.020    20992143.160          50.000
        48.750
 118867819.278 7  92624266.93346  22619796.040    22619793.500          47.250
        40.500
 114077537.286 8  88891590.36647  21708234.920    21708235.760          48.250
        43.750
 113395446.704 8  88360097.19047  21578435.220    21578436.680          48.250
        43.500
 126820759.243 7  98821374.65945  24133191.320    24133193.640          42.500
        34.750
 121900605.450 7  94987492.09846  23196913.120    23196913.980          42.750
        36.000
 129471586.210 6 100886960.38145  24637624.760    24637627.140          38.750
        31.750
 111524133.629 8  86901917.72947  21222337.220    21222336.780          49.250
        44.000
 14  1  9  8  5  0.0000000  0 11G01G19G03G27G22G06G32G16G14G20G11
 118570101.124 7  92392304.86847  22563140.080    22563143.800          46.000
        42.750
 107487167.485 8  83756224.72448  20454128.600    20454126.320          50.250
        51.000
 106481653.591 8  82972719.09948  20262785.620    20262786.380          50.750
        48.000
 110366597.295 8  85999953.77548  21002066.100    21002068.280          50.000
        49.000
 118948652.983 7  92687254.18646  22635178.280    22635175.560          46.750
        41.750
 114146233.624 8  88945119.94047  21721307.380    21721308.280          48.000
        44.250
 113312227.792 8  88295251.31547  21562599.300    21562600.680          48.250
        43.500
 126928484.945 7  98905316.60945  24153691.000    24153693.220          42.000
        34.000
 121860040.281 7  94955882.84145  23189193.800    23189194.680          42.250
        35.750
 129363201.627 6 100802504.97845  24616999.680    24617002.400          39.250
        30.000
 111466982.717 8  86857384.54647  21211461.700    21211461.300          49.000
        43.750
 14  1  9  8  5 30.0000000  0 11G01G19G03G27G22G06G32G16G14G20G11
 118506299.355 7  92342589.22447  22550999.020    22551002.600          45.500
        42.500
 107473183.728 8  83745328.28248  20451467.540    20451465.380          50.250
        51.000
 106530354.885 8  83010668.13048  20272053.220    20272053.960          50.750
        48.250
 110419165.301 8  86040915.81948  21012069.420    21012071.740          50.000
        48.750
 119029729.746 7  92750430.82546  22650606.640    22650603.960          46.250
        41.250
 114215260.851 8  88998907.33447  21734442.720    21734443.800          48.000
        44.250
 113229425.465 8  88230730.05247  21546842.660    21546843.980          48.500
        43.000
 127036245.352 6  98989285.62045  24174197.380    24174199.380          41.250
        34.250
 121819901.480 7  94924605.82646  23181555.440    23181556.520          42.000
        37.750
 129254921.248 6 100718130.74144  24596394.480    24596397.500          39.500
        27.750
 111410060.338 8  86813029.44247  21200629.660    21200629.240          49.250
        43.750
 14  1  9  8  6  0.0000000  0 11G01G19G03G27G22G06G32G16G14G20G11
 118442641.561 7  92292985.76847  22538885.260    22538888.740          45.750
        43.000
 107459601.871 8  83734745.00248  20448882.980    20448880.900          50.250
        51.000
 106579548.018 8  83049000.42348  20281414.420    20281415.120          50.750
        48.000
 110472143.079 8  86082197.16448  21022150.740    21022153.140          50.000
        48.750
 119111046.117 7  92813794.17846  22666080.580    22666078.040          46.750
        41.750
 114284616.021 8  89052950.27647  21747640.560    21747641.740          48.250
        43.750
 113147040.466 8  88166533.96147  21531165.420    21531166.580          48.500
        43.250
 127144036.379 6  99073278.46045  24194709.620    24194711.280          41.250
        33.500
 121780189.676 7  94893661.54745  23173998.340    23173999.680          42.750
        35.000
 129146745.473 6 100633838.07745  24575809.340    24575812.420          38.750
        32.250
 111353365.818 8  86768851.89147  21189841.040    21189840.560          49.250
        44.000
 14  1  9  8  6 30.0000000  0 11G01G19G03G27G22G06G32G16G14G20G11
 118379127.528 7  92243494.32247  22526798.860    22526802.340          45.250
        42.750
 107446422.718 8  83724475.52248  20446375.020    20446373.020          50.250
        51.250
 106629231.832 8  83087715.05548  20290868.980    20290869.640          50.750
        48.000
 110525529.918 8  86123797.25748  21032309.940    21032312.320          50.000
        48.500
 119192599.446 7  92877342.16746  22681599.620    22681597.240          46.750
        41.500
 114354298.637 8  89107248.37047  21760900.780    21760902.000          48.000
        44.000
 113065074.272 8  88102664.23047  21515567.740    21515568.840          48.500
        43.500
 127251855.119 6  99157292.93445  24215227.020    24215228.540          41.250
        34.500
 121740906.662 7  94863051.35946  23166523.020    23166524.400          42.500
        37.000
 129038675.831 6 100549628.11044  24555244.320    24555247.500          39.750
        29.500
 111296899.718 8  86724852.32947  21179095.860    21179095.420          49.250
        44.000
 14  1  9  8  7  0.0000000  0 11G01G19G03G27G22G06G32G16G14G20G11
 118315758.740 7  92194116.05246  22514740.100    22514743.700          45.750
        41.500
 107433649.038 8  83714521.99648  20443944.220    20443942.360          50.250
        51.250
 106679406.653 8  83126812.28148  20300416.960    20300417.620          50.500
        48.000
 110579326.859 8  86165716.92248  21042547.220    21042549.500          50.000
        48.500
 119274388.897 7  92941074.13746  22697163.720    22697161.400          46.750
        41.000
 114424308.908 8  89161801.77847  21774223.400    21774224.520          48.250
        43.500
 112983530.329 8  88039123.49947  21500050.420    21500051.500          48.500
        43.750
 127359699.953 6  99241327.73045  24235749.380    24235750.740          41.250
        35.750
 121702056.258 7  94832778.27246  23159130.120    23159131.520          43.250
        37.750
 128930715.613 6 100465503.43445  24534700.040    24534703.300          39.750
        34.750
 111240664.578 8  86681032.72447  21168394.640    21168394.220          48.750
        44.750
 14  1  9  8  7 30.0000000  0 11G01G19G03G27G22G06G32G16G14G20G11
 118252548.682 7  92144861.48447  22502711.580    22502715.180          45.500
        42.250
 107421295.463 8  83704895.82348  20441593.440    20441591.600          50.500
        51.000
 106730085.390 8  83166302.17848  20310060.840    20310061.520          50.750
        48.000
