     2.11           OBSERVATION DATA    G (GPS)             RINEX VERSION / TYPE
teqc  2015Nov6                          20161009 21:29:56UTCPGM / RUN BY / DATE
Linux2.4.20-8|i386|gcc|Win32-MinGW32|=                      COMMENT
BIT 2 OF LLI FLAGS DATA COLLECTED UNDER A/S CONDITION       COMMENT
-Unknown-                                                   MARKER NAME
-Unknown-           -Unknown-                               OBSERVER / AGENCY
462405              LEICA GRX1200PRO    8.20/2.127          REC # / TYPE / VERS
                    LEIAT504        NONE                    ANT # / TYPE
  5106717.8077   270605.9299  3799529.1809                  APPROX POSITION XYZ
        0.0770        0.0000        0.0000                  ANTENNA: DELTA H/E/N
     1     1                                                WAVELENGTH FACT L1/2
     6    L1    L2    C1    P2    S1    S2                  # / TYPES OF OBSERV
    30.0000                                                 INTERVAL
SPIDER                                                      COMMENT
Made by Spider v4.0.0                                       COMMENT
Project creator:                                            COMMENT
                                                            COMMENT
 SNR is mapped to RINEX snr flag value [0-9]                COMMENT
  L1 & L2: min(max(int(snr_dBHz/6), 0), 9)                  COMMENT
  2014     1     8     0     0    0.0000000     GPS         TIME OF FIRST OBS
                                                            END OF HEADER
 14  1  8  0  0  0.0000000  0  6G02G24G25G14G29G12
 122250006.508 7  95259733.03446  23263402.680    23263400.700          44.250
        39.500
 115578254.842 7  90061018.95047  21993799.060    21993801.960          46.750
        44.750
 109195550.130 8  85087489.78448  20779212.380    20779214.420          49.750
        48.250
 113991890.603 7  88824860.31947  21691936.800    21691936.020          47.250
        43.750
 111128470.703 8  86593631.36647  21147033.060    21147033.060          49.500
        47.000
 110476087.031 8  86085305.63647  21022882.640    21022881.980          50.000
        47.750
 14  1  8  0  0 30.0000000  0  6G02G24G25G14G29G12
 122224409.062 7  95239787.00546  23258531.800    23258529.540          44.500
        39.500
 115651301.138 7  90117938.13447  22007699.340    22007702.180          46.750
        44.500
 109175353.647 8  85071752.25948  20775369.140    20775371.200          50.000
        48.250
 113981071.299 7  88816429.68147  21689877.980    21689877.200          47.250
        43.500
 111055181.083 8  86536522.59547  21133086.620    21133086.580          49.250
        47.250
 110517955.512 8  86117930.42647  21030849.960    21030849.200          49.750
        47.750
 14  1  8  0  1  0.0000000  0  6G02G24G25G14G29G12
 122199254.192 7  95220185.81846  23253745.100    23253742.560          44.500
        38.750
 115724681.389 7  90175117.51947  22021663.200    22021665.900          47.000
        44.000
 109155400.755 8  85056204.56348  20771572.300    20771574.280          50.000
        48.250
 113970850.852 7  88808465.70247  21687933.060    21687932.380          47.250
        43.000
 110982329.822 8  86479755.39147  21119223.560    21119223.420          49.500
        47.250
 110560008.016 8  86150698.60147  21038852.280    21038851.520          49.750
        47.750
 14  1  8  0  1 30.0000000  0  7G02G31G24G25G14G29G12
 122174531.053 7  95200921.04246  23249040.580    23249037.920          44.250
        39.250
 129376292.414 6 100812697.53945  24619490.100    24619490.840          36.000
        32.500
 115798382.276 7  90232546.78047  22035688.140    22035690.680          46.750
        44.750
 109135678.841 8  85040836.84648  20767819.420    20767821.320          50.000
        48.250
 113961217.347 7  88800959.06747  21686099.820    21686099.160          47.500
        43.250
 110909906.092 8  86423321.33747  21105441.840    21105441.580          49.250
        47.250
 110602231.577 8  86183600.05447  21046887.220    21046886.400          50.000
        47.750
 14  1  8  0  2  0.0000000  0  7G02G31G24G25G14G29G12
 122150269.408 7  95182015.88146  23244423.780    23244421.120          45.000
        40.750
 129281709.143 6 100738996.29845  24601491.400    24601491.620          36.250
        35.250
 115872431.738 7  90290247.64947  22049779.400    22049781.880          46.750
        44.500
 109116215.877 8  85025670.89848  20764115.760    20764117.680          50.000
        48.250
 113952199.388 7  88793932.07847  21684383.780    21684383.160          47.500
        43.250
 110837939.934 8  86367243.82747  21091747.180    21091746.820          49.500
        47.250
 110644653.857 8  86216656.36247  21054960.020    21054959.020          50.000
        47.500
 14  1  8  0  2 30.0000000  0  7G02G31G24G25G14G29G12
 122126411.321 7  95163425.16046  23239883.600    23239881.180          44.500
        40.500
 129187088.714 6 100665266.14045  24583485.800    24583485.300          38.000
        34.000
 115946769.015 7  90348172.78447  22063925.340    22063927.860          46.500
        44.000
 109096951.946 8  85010660.05748  20760449.960    20760451.860          50.000
        48.000
 113943737.367 7  88787338.28747  21682773.460    21682772.860          47.500
        43.000
 110766373.128 8  86311477.50347  21078128.460    21078128.040          49.500
        47.250
 110687214.282 8  86249820.30947  21063059.120    21063057.840          50.000
        47.250
 14  1  8  0  3  0.0000000  0  7G02G31G24G25G14G29G12
 122102991.446 7  95145175.92346  23235426.760    23235424.500          44.000
        40.500
 129092466.101 6 100591534.27145  24565479.740    24565478.460          38.250
        33.250
 116021426.511 7  90406347.44347  22078132.180    22078134.700          46.500
        43.500
 109077920.137 8  84995830.08248  20756828.340    20756830.120          50.000
        48.000
 113935865.072 7  88781204.03747  21681275.400    21681274.760          47.000
        43.250
 110695240.720 8  86256049.66447  21064592.340    21064591.980          49.500
        47.500
 110729945.169 8  86283117.10248  21071190.660    21071189.220          49.750
        48.000
 14  1  8  0  3 30.0000000  0  7G02G31G24G25G14G29G12
 122080008.601 7  95127267.22946  23231053.200    23231050.960          44.250
        40.500
 128997839.889 6 100517799.55045  24547473.080    24547471.260          39.000
        32.000
 116096400.811 7  90464768.97047  22092399.260    22092401.840          46.250
        44.000
 109059117.362 8  84981178.58048  20753250.340    20753252.000          50.250
        48.250
 113928579.501 7  88775526.96547  21679888.980    21679888.300          47.500
        43.500
 110624541.499 8  86200959.37347  21051138.600    21051138.380          49.250
        47.500
 110772843.537 8  86316544.39247  21079353.900    21079352.640          49.750
        47.750
 14  1  8  0  4  0.0000000  0  7G02G31G24G25G14G29G12
 122057467.697 7  95109702.90446  23226763.800    23226761.440          43.750
        39.750
 128903214.735 6 100444065.68445  24529466.500    24529464.760          38.500
        30.750
 116171694.565 7  90523439.42547  22106727.100    22106729.740          45.750
        44.500
 109040546.758 8  84966707.98948  20749716.480    20749718.200          50.000
        48.500
 113921884.352 7  88770309.96647  21678614.900    21678614.240          47.000
        43.250
 110554280.369 8  86146210.46147  21037768.200    21037768.200          49.250
        47.750
 110815911.987 8  86350104.20047  21087549.480    21087548.360          49.750
        47.500
 14  1  8  0  4 30.0000000  0  7G02G31G24G25G14G29G12
 122035369.248 7  95092483.34646  23222558.540    23222556.180          44.250
        40.250
 128808591.074 6 100370332.92745  24511460.180    24511458.780          38.750
        33.500
 116247305.915 7  90582357.35647  22121115.340    22121118.080          46.250
        44.000
 109022207.123 8  84952417.37548  20746226.540    20746228.360          50.000
        48.500
 113915778.498 7  88765552.15147  21677453.000    21677452.320          47.500
        43.250
 110484457.832 8  86091803.28048  21024481.320    21024481.460          49.250
        48.000
 110859148.708 8  86383795.14847  21095777.160    21095775.980          50.000
        47.250
 14  1  8  0  5  0.0000000  0  7G02G31G24G25G14G29G12
 122013712.918 7  95075608.30246  23218437.480    23218435.120          44.500
        39.750
 128713969.042 6 100296601.44446  24493454.100    24493453.100          38.250
        36.250
 116323232.396 7  90641520.83447  22135563.660    22135566.400          46.750
        44.250
 109004096.636 8  84938305.32448  20742780.140    20742782.080          50.000
        48.750
 113910261.055 7  88761252.84347  21676403.060    21676402.480          47.500
        43.500
 110415074.164 8  86037738.09247  21011278.100    21011278.220          49.750
        47.750
 110902551.294 8  86417615.32848  21104036.460    21104035.260          49.750
        48.000
 14  1  8  0  5 30.0000000  0  7G02G31G24G25G14G29G12
 121992500.022 7  95059078.78946  23214400.840    23214398.480          45.000
        40.500
 128619349.596 6 100222872.00846  24475448.620    24475447.820          39.500
        37.750
 116399472.661 7  90700928.82847  22150071.780    22150074.340          46.500
        43.750
 108986214.568 8  84924371.24248  20739377.260    20739379.240          50.250
        48.250
 113905331.343 7  88757411.49247  21675465.020    21675464.440          47.500
        43.000
 110346130.151 8  85984015.50947  20998158.600    20998158.600          49.750
        47.750
 110946118.720 8  86451563.96447  21112327.060    21112326.020          49.750
        47.750
 14  1  8  0  6  0.0000000  0  7G02G31G24G25G14G29G12
 121971731.194 7  95042895.30146  23210448.700    23210446.460          44.750
        40.250
 128524733.502 6 100149145.21245  24457443.920    24457443.020          40.250
        34.750
 116476025.419 7  90760580.32847  22164639.420    22164641.820          46.500
        43.750
 108968560.019 8  84910614.45548  20736017.740    20736019.720          50.250
        48.500
 113900988.248 7  88754027.25847  21674638.560    21674637.960          47.250
        42.750
 110277626.546 8  85930636.08547  20985122.880    20985122.780          49.750
        47.750
 110989849.354 8  86485639.77547  21120648.720    21120647.820          50.000
        47.500
 14  1  8  0  6 30.0000000  0  7G02G31G24G25G14G29G12
 121951410.610 7  95027061.08446  23206581.860    23206579.660          44.750
        41.250
 128430124.965 6 100075424.26845  24439440.760    24439439.640          40.750
        32.500
 116552892.100 7  90820476.42747  22179266.740    22179269.140          46.000
        44.000
 108951135.440 8  84897036.86548  20732702.020    20732703.880          50.250
        48.250
 113897235.172 7  88751102.78847  21673924.300    21673923.860          47.250
        43.000
 110209567.476 8  85877603.06147  20972171.720    20972171.520          49.750
        47.500
 111033745.711 8  86519844.72047  21129001.960    21129001.080          50.000
        47.250
 14  1  8  0  7  0.0000000  0  7G02G31G24G25G14G29G12
 121931537.288 7  95011575.39146  23202800.160    23202797.800          44.750
        40.500
 128335523.569 6 100001708.92345  24421438.920    24421437.640          40.000
        35.750
 116630069.987 7  90880615.02547  22193953.200    22193955.700          46.000
        44.000
 108933938.329 8  84883636.52148  20729429.560    20729431.340          50.000
        48.500
 113894069.318 7  88748635.88747  21673321.820    21673321.420          47.500
        43.250
 110141952.269 8  85824915.89448  20959304.960    20959304.680          49.750
        48.000
 111077804.835 8  86554176.49247  21137386.140    21137385.120          49.750
        47.500
 14  1  8  0  7 30.0000000  0  7G02G31G24G25G14G29G12
 121912115.618 7  94996441.65046  23199104.440    23199101.840          45.250
        39.750
 128240934.042 6  99928002.80045  24403439.160    24403437.900          39.750
        31.000
 116707560.879 7  90940997.52947  22208699.200    22208701.840          46.000
        43.500
 108916971.483 8  84870415.59848  20726200.900    20726202.580          50.250
        48.500
 113891494.311 7  88746629.38447  21672831.840    21672831.460          47.500
        43.250
 110074785.483 8  85772578.15448  20946523.500    20946523.220          49.500
        48.000
 111122028.707 8  86588636.64847  21145801.660    21145800.600          49.750
        47.500
 14  1  8  0  8  0.0000000  0  7G02G31G24G25G14G29G12
 121893146.169 7  94981660.27646  23195494.740    23195492.060          44.750
        39.750
 128146356.620 6  99854306.09245  24385441.580    24385440.340          40.500
        33.500
 116785363.059 7  91001622.58947  22223504.380    22223507.180          45.500
        43.750
 108900233.882 8  84857373.31748  20723015.840    20723017.480          50.000
        48.500
 113889508.751 7  88745082.18447  21672454.040    21672453.620          47.750
        43.250
 110008067.996 8  85720590.50748  20933827.560    20933827.280          49.750
        48.250
 111166416.174 8  86623224.26447  21154248.220    21154247.380          49.500
        47.750
 14  1  8  0  8 30.0000000  0  7G02G31G24G25G14G29G12
 121874627.705 7  94967230.32746  23191970.700    23191968.200          44.000
        40.750
 128051790.468 6  99780618.18945  24367446.200    24367444.920          41.750
        35.250
 116863473.548 7  91062487.89647  22238368.240    22238371.180          45.750
        43.750
 108883722.650 8  84844507.41848  20719873.840    20719875.520          50.250
        48.500
 113888110.562 7  88743992.67447  21672188.140    21672187.560          47.750
        43.500
 109941798.315 8  85668951.78248  20921216.860    20921216.600          49.750
        48.000
 111210963.866 8  86657936.74947  21162725.320    21162724.560          49.750
        47.500
 14  1  8  0  9  0.0000000  0  7G02G31G24G25G14G29G12
 121856561.632 7  94953152.88146  23188532.660    23188530.480          44.500
        40.500
 127957237.219 7  99706940.35545  24349453.300    24349451.880          42.750
        33.750
 116941890.796 7  91123592.23647  22253290.580    22253293.580          45.750
        43.500
 108867437.610 8  84831817.77748  20716774.860    20716776.620          50.000
        48.500
 113887298.757 7  88743360.09247  21672033.780    21672033.100          47.500
        43.500
 109875977.814 8  85617663.09248  20908691.620    20908691.420          49.750
        48.250
 111255671.325 8  86692773.73047  21171232.840    21171232.000          49.500
        46.750
 14  1  8  0  9 30.0000000  0  7G02G31G24G25G14G29G12
 121838949.993 7  94939429.53646  23185181.100    23185179.160          44.000
        41.500
 127862699.506 7  99633274.61746  24331463.340    24331462.000          42.750
        36.000
 117020615.439 7  91184936.08547  22268271.480    22268274.460          45.750
        43.250
 108851379.473 8  84819304.96348  20713719.060    20713720.880          50.000
        48.750
 113887074.438 7  88743185.30047  21671991.180    21671990.380          47.500
        43.000
 109810608.764 8  85566726.17248  20896252.220    20896252.100          49.250
        48.250
 111300538.478 8  86727735.14347  21179770.700    21179769.800          49.500
        47.250
 14  1  8  0 10  0.0000000  0  7G02G31G24G25G14G29G12
 121821794.606 7  94926061.71346  23181916.560    23181914.520          44.500
        40.500
 127768179.102 7  99559622.38946  24313476.660    24313475.400          43.000
        36.250
 117099646.516 7  91246518.73947  22283310.680    22283313.560          45.500
        43.250
 108835548.368 8  84806969.04348  20710706.400    20710708.340          50.000
        48.750
 113887438.112 7  88743468.67847  21672060.360    21672059.560          47.500
        43.500
 109745693.553 8  85516142.89948  20883899.140    20883899.140          49.500
        48.250
 111345565.540 8  86762821.17147  21188339.040    21188338.100          49.500
        47.000
 14  1  8  0 10 30.0000000  0  7G02G31G24G25G14G29G12
 121805097.107 7  94913050.69746  23178739.220    23178736.900          44.750
        39.500
 127673678.059 7  99485985.22346  24295493.660    24295492.480          42.500
        36.750
 117178983.763 7  91308339.95647  22298408.060    22298410.840          45.750
        43.000
 108819944.578 8  84794810.24448  20707737.040    20707739.000          50.000
        48.750
 113888389.962 7  88744210.36547  21672241.520    21672240.700          47.500
        43.000
 109681233.399 8  85465914.23448  20871632.720    20871632.780          49.750
        48.250
 111390751.691 8  86798031.15247  21196937.760    21196936.720          49.500
        47.000
 14  1  8  0 11  0.0000000  0  7G02G31G24G25G14G29G12
 121788858.293 7  94900397.08446  23175649.160    23175646.580          44.500
        38.750
 127579197.524 7  99412364.04946  24277514.560    24277513.340          43.000
        36.000
 117258625.423 7  91370398.37847  22313563.360    22313566.180          46.000
        43.000
 108804567.469 8  84782828.09248  20704810.880    20704812.780          50.250
        48.500
 113889929.107 7  88745409.69347  21672534.440    21672533.560          47.750
        43.500
 109617229.363 8  85416040.97848  20859453.140    20859453.200          49.750
        48.250
 111436096.288 8  86833364.59947  21205566.580    21205565.480          49.500
        46.750
 14  1  8  0 11 30.0000000  0  7G02G31G24G25G14G29G12
 121773080.154 7  94888102.43346  23172646.660    23172644.060          44.250
        40.250
 127484739.896 7  99338760.72546  24259539.740    24259538.360          42.500
        37.500
 117338570.924 7  91432693.56147  22328776.480    22328779.240          45.750
        43.250
 108789417.489 8  84771022.93648  20701927.980    20701929.880          50.250
        48.500
 113892056.132 7  88747067.09747  21672939.140    21672938.380          47.500
        43.000
 109553683.275 8  85366524.57248  20847360.760    20847360.720          49.750
        48.250
 111481599.698 8  86868821.80547  21214225.620    21214224.320          49.750
        46.500
 14  1  8  0 12  0.0000000  0  7G02G31G24G25G14G29G12
 121757762.816 7  94876166.86946  23169731.860    23169729.380          45.000
        39.750
 127390305.539 7  99265175.53346  24241569.280    24241567.940          42.250
        37.500
 117418818.878 7  91495224.43347  22344047.120    22344049.780          45.500
        43.250
 108774493.188 8  84759393.60148  20699087.980    20699089.900          50.000
        48.750
 113894769.523 7  88749181.41747  21673455.460    21673454.800          47.750
        43.250
 109490595.416 8  85317365.21348  20835355.560    20835355.480          49.750
        48.250
 111527259.466 8  86904400.83747  21222914.440    21222913.040          49.750
        47.000
 14  1  8  0 12 30.0000000  0  7G02G31G24G25G14G29G12
 121742907.527 7  94864591.34046  23166904.980    23166902.680          45.000
        41.750
 127295896.021 6  99191609.68746  24223603.560    24223602.380          41.500
        39.000
 117499367.952 7  91557989.93847  22359375.060    22359377.700          45.500
        43.250
 108759794.341 8  84747939.95848  20696290.820    20696292.720          50.000
        48.250
 113898068.983 7  88751752.42147  21674083.320    21674082.740          47.500
        43.500
 109427966.993 8  85268563.86548  20823437.740    20823437.740          49.500
        48.750
 111573075.057 8  86940101.27747  21231632.840    21231631.580          49.500
        47.250
 14  1  8  0 13  0.0000000  0  7G02G31G24G25G14G29G12
 121728513.914 7  94853375.52546  23164165.900    23164163.780          45.000
        41.500
 127201512.084 6  99118063.78646  24205642.760    24205641.800          41.500
        37.000
 117580215.918 7  91620988.34747  22374759.920    22374762.580          45.250
        43.500
 108745319.567 8  84736660.91948  20693536.340    20693538.160          50.000
        48.250
 113901953.030 7  88754778.94047  21674822.420    21674821.840          47.250
        43.250
 109365798.113 8  85220120.58448  20811607.340    20811607.480          49.750
        48.500
 111619045.169 8  86975922.13147  21240380.640    21240379.560          49.750
        47.000
 14  1  8  0 13 30.0000000  0  7G02G31G24G25G14G29G12
 121714583.538 7  94842520.69246  23161515.040    23161512.860          44.750
        40.250
 127107155.334 7  99044539.08546  24187687.300    24187686.380          42.000
        37.750
 117661362.168 7  91684219.18047  22390201.520    22390204.180          45.250
        43.750
 108731068.909 8  84725556.51748  20690824.540    20690826.360          50.000
        48.750
 113906421.413 7  88758260.78347  21675672.640    21675672.080          47.500
        43.500
 109304090.071 8  85172036.40048  20799864.620    20799864.880          49.750
        48.750
 111665169.538 8  87011863.20047  21249157.880    21249156.840          49.750
        47.000
 14  1  8  0 14  0.0000000  0  7G02G31G24G25G14G29G12
 121701118.200 7  94832028.24846  23158952.720    23158950.400          45.000
        41.000
 127012828.217 7  98971037.45045  24169737.600    24169736.580          42.250
        35.000
 117742806.138 7  91747682.00247  22405699.800    22405702.500          45.250
        42.750
 108717042.875 8  84714627.13048  20688155.480    20688157.320          50.000
        48.500
 113911474.500 7  88762198.23747  21676634.220    21676633.620          47.750
        43.000
 109242844.990 8  85124312.96248  20788210.020    20788210.360          49.750
        48.500
 111711448.023 8  87047924.36247  21257964.420    21257963.460          49.500
        47.250
 14  1  8  0 14 30.0000000  0  7G02G31G24G25G14G29G12
 121688119.303 7  94821899.25846  23156479.260    23156476.760          45.250
        41.250
 126918532.612 6  98897560.35546  24151793.960    24151792.760          41.750
        38.000
 117824547.226 7  91811376.33947  22421254.580    22421257.380          45.000
        43.500
 108703241.652 8  84703872.94448  20685529.180    20685531.080          50.000
        48.750
 113917112.339 7  88766591.35047  21677707.100    21677706.360          47.500
        43.000
 109182064.813 8  85076951.79348  20776643.980    20776644.260          50.000
        48.750
 111757879.848 8  87084104.98047  21266800.020    21266799.180          49.500
        46.750
 14  1  8  0 15  0.0000000  0  7G02G31G24G25G14G29G12
 121675589.120 7  94812135.48546  23154094.860    23154092.380          44.500
        40.750
 126824271.509 6  98824110.14746  24133856.780    24133855.560          41.000
        37.750
 117906585.803 7  91875302.47847  22436865.940    22436868.840          44.750
        43.000
 108689666.069 8  84693294.57048  20682945.880    20682947.760          50.000
        48.750
 113923335.580 7  88771440.63147  21678891.340    21678890.600          47.250
        43.250
 109121751.405 8  85029954.33948  20765166.840    20765166.960          50.000
        48.500
 111804466.316 8  87120406.11747  21275665.040    21275664.220          49.250
        47.000
 14  1  8  0 15 30.0000000  0  7G02G31G24G25G14G29G12
 121663530.456 7  94802739.14846  23151800.020    23151797.660          44.500
        40.500
 126730048.216 6  98750689.41145  24115926.640    24115925.660          41.000
        35.500
 117988922.024 7  91939460.56847  22452533.900    22452536.960          44.750
        43.000
 108676317.756 8  84682893.29548  20680405.820    20680407.640          50.000
        48.750
 113930145.470 7  88776747.02547  21680187.240    21680186.520          47.750
        43.000
 109061907.768 8  84983322.93748  20753779.100    20753779.040          50.000
        48.500
 111851208.487 8  87156828.59147  21284559.740    21284558.880          49.250
        46.500
 14  1  8  0 16  0.0000000  0  7G02G31G24G25G14G29G12
 121651937.853 7  94793705.95146  23149593.760    23149591.720          44.500
        40.250
 126635858.119 7  98677294.53746  24098002.900    24098001.860          42.250
        37.500
 118071548.883 7  92003845.12847  22468257.220    22468260.400          44.750
        43.500
 108663189.955 8  84672663.85448  20677907.620    20677909.460          49.750
        48.500
 113937534.978 7  88782505.08047  21681593.380    21681592.700          47.500
        43.250
 109002528.589 8  84937053.46448  20742479.680    20742479.480          50.000
        49.000
 111898098.446 8  87193366.21347  21293482.580    21293481.700          49.250
        46.750
 14  1  8  0 16 30.0000000  0  7G02G31G24G25G14G29G12
 121640814.106 7  94785038.09646  23147476.780    23147474.980          44.000
        40.250
 126541704.211 7  98603927.86346  24080086.120    24080084.960          42.500
        37.750
 118154466.614 7  92068456.33647  22484036.020    22484039.160          45.250
        42.750
 108650283.985 8  84662607.26448  20675451.600    20675453.520          50.000
        48.500
 113945505.011 7  88788715.48647  21683110.040    21683109.360          47.500
        43.000
 108943616.601 8  84891148.03148  20731269.080    20731268.900          49.750
        48.750
 111945137.827 8  87230020.26147  21302433.860    21302432.980          49.250
        46.500
 14  1  8  0 17  0.0000000  0  7G02G31G24G25G14G29G12
 121630162.909 7  94776738.47246  23145449.880    23145448.060          44.500
        40.500
 126447591.258 7  98530593.11946  24062177.120    24062175.820          43.250
        37.000
 118237676.890 7  92133295.50647  22499870.500    22499873.540          45.000
        43.000
 108637602.769 8  84652725.80448  20673038.400    20673040.380          50.000
        48.500
 113954058.215 7  88795380.30547  21684737.600    21684736.980          47.250
        42.750
 108885175.730 8  84845609.70248  20720148.100    20720147.980          49.750
        48.750
 111992329.617 8  87266793.06047  21311414.160    21311413.220          49.250
        46.500
 14  1  8  0 17 30.0000000  0  7G02G31G24G25G14G29G12
 121619985.285 7  94768807.85846  23143513.200    23143511.140          44.500
        40.500
 126353521.015 7  98457291.62746  24044276.220    24044274.620          42.750
        36.250
 118321178.815 7  92198361.93747  22515760.460    22515763.420          44.500
        42.500
 108625145.774 8  84643019.06448  20670667.940    20670669.900          50.000
        48.750
 113963193.653 7  88802498.82647  21686475.980    21686475.480          47.250
        43.500
 108827206.972 8  84800439.25348  20709116.940    20709116.840          49.750
        48.750
 112039672.720 8  87303683.77947  21320423.400    21320422.320          49.750
        46.500
 14  1  8  0 18  0.0000000  0  7G02G31G24G25G14G29G12
 121610281.050 7  94761246.15346  23141666.660    23141664.400          44.500
        40.750
 126259493.638 7  98384023.54946  24026383.440    24026381.780          42.750
        37.750
 118404969.499 7  92263653.37547  22531705.360    22531708.240          44.500
        42.750
 108612911.854 8  84633486.14648  20668339.900    20668341.860          49.750
        48.500
 113972909.845 7  88810069.88147  21688324.860    21688324.440          47.000
        43.000
 108769710.407 8  84755636.74748  20698175.660    20698175.560          49.750
        49.000
 112087164.856 8  87340690.63047  21329461.020    21329459.800          49.500
        46.750
 14  1  8  0 18 30.0000000  0  7G02G31G24G25G14G29G12
 121601050.995 7  94754053.91546  23139910.300    23139907.940          44.750
        40.000
 126165511.041 7  98310790.39446  24008499.140    24008497.520          42.500
        38.250
 118489048.884 7  92329169.74647  22547705.220    22547708.080          44.750
        42.500
 108600900.855 8  84624126.92848  20666054.200    20666056.280          49.750
        48.750
 113983206.036 7  88818092.87547  21690284.180    21690283.800          47.250
        43.500
 108712687.039 8  84711202.97548  20687324.460    20687324.340          49.750
        49.000
 112134806.088 8  87377813.66647  21338526.980    21338525.680          49.750
        47.000
 14  1  8  0 19  0.0000000  0  7G02G31G24G25G14G29G12
 121592295.399 7  94747231.38346  23138244.220    23138241.840          44.500
        39.750
 126071574.662 7  98237593.22446  23990623.640    23990622.100          43.000
        37.000
 118573414.456 7  92394909.15147  22563759.560    22563762.260          45.000
        42.500
 108589111.924 8  84614940.75848  20663810.840    20663812.960          50.000
        48.750
 113994080.941 7  88826566.82047  21692353.620    21692353.320          46.750
        43.250
 108656137.408 8  84667138.31948  20676563.420    20676563.300          49.750
        49.000
 112182595.401 8  87415052.07647  21347621.040    21347619.720          49.250
        46.500
 14  1  8  0 19 30.0000000  0  7G02G31G24G25G14G29G12
 121584016.553 7  94740780.32246  23136668.800    23136666.440          44.750
        40.000
 125977687.584 7  98164434.46746  23972757.480    23972756.100          43.000
        38.750
 118658066.550 7  92460871.81846  22579868.420    22579870.940          45.250
        41.750
 108577545.904 8  84605928.28348  20661609.940    20661612.000          50.000
        48.750
 114005535.079 7  88835492.11947  21694533.240    21694532.980          47.000
        43.250
 108600063.778 8  84623444.59648  20665892.960    20665892.840          50.000
        49.000
 112230532.996 8  87452406.04847  21356743.200    21356741.880          49.250
        46.750
 14  1  8  0 20  0.0000000  0  7G02G31G24G25G14G29G12
 121576217.040 7  94734702.79046  23135184.600    23135182.260          45.500
        40.000
 125883852.601 7  98091316.30546  23954901.140    23954900.020          43.500
        38.250
 118743005.709 7  92527058.16147  22596031.760    22596034.400          45.000
        42.500
 108566204.634 8  84597090.93248  20659451.700    20659453.820          49.750
        49.000
 114017569.591 7  88844869.65447  21696823.340    21696823.080          47.000
        43.500
 108544468.737 8  84580123.78548  20655313.620    20655313.460          50.000
        49.000
 112278620.546 8  87489876.84647  21365893.920    21365892.680          49.500
        47.000
 14  1  8  0 20 30.0000000  0  7G02G31G24G25G14G29G12
 121568894.461 7  94728996.90646  23133791.240    23133788.800          45.250
        40.500
 125790068.582 7  98018237.87546  23937054.480    23937053.560          43.500
        38.500
 118828227.405 7  92593464.66346  22612248.860    22612251.640          45.500
        41.750
 108555084.566 8  84588425.94648  20657335.600    20657337.760          50.000
        49.000
 114030180.499 7  88854696.32847  21699223.140    21699222.840          47.000
        43.500
 108489350.113 8  84537174.23448  20644824.940    20644824.740          50.000
        49.250
 112326854.023 8  87527461.37147  21375072.440    21375071.240          49.250
        46.750
 14  1  8  0 21  0.0000000  0  7G02G31G24G25G14G29G12
 121562048.421 7  94723662.34246  23132488.680    23132485.980          45.500
        40.750
 125696335.854 7  97945199.37646  23919217.760    23919216.700          43.500
        38.000
 118913729.239 7  92660089.45647  22628519.280    22628522.080          45.250
        42.250
 108544184.275 8  84579932.21048  20655261.420    20655263.500          50.000
        49.000
 114043365.774 7  88864970.56647  21701732.280    21701731.860          47.250
        43.500
 108434707.545 8  84494595.61848  20634426.840    20634426.600          50.000
        49.250
 112375231.649 8  87565158.21247  21384278.280    21384277.240          49.250
        46.750
 14  1  8  0 21 30.0000000  0  7G02G31G24G25G14G29G12
 121555683.052 7  94718702.32946  23131277.580    23131274.700          45.250
        40.000
 125602659.734 7  97872205.01346  23901391.800    23901390.640          42.750
        38.000
 118999513.294 7  92726934.15847  22644843.440    22644846.200          45.250
        42.000
 108533506.907 8  84571612.17548  20653229.700    20653231.620          50.250
        48.750
 114057127.743 7  88875694.15647  21704351.200    21704350.600          47.500
        42.750
 108380545.481 8  84452391.44148  20624120.120    20624119.840          50.000
        49.000
 112423755.430 8  87602968.94247  21393511.980    21393511.040          49.250
        46.250
 14  1  8  0 22  0.0000000  0  7G02G31G24G25G14G29G12
 121549796.989 7  94714115.79946  23130157.500    23130154.620          44.750
        41.000
 125509039.769 7  97799254.39946  23883576.500    23883575.300          42.250
        36.750
 119085576.537 7  92793996.41547  22661220.760    22661223.500          44.750
        42.500
 108523050.130 8  84563464.04248  20651239.880    20651241.720          50.000
        48.750
 114071463.414 7  88886864.79447  21707079.300    21707078.600          47.500
        43.250
 108326862.556 8  84410560.61748  20613904.520    20613904.260          50.000
        49.250
 112472423.908 8  87640892.43847  21402773.160    21402772.360          49.000
        46.750
 14  1  8  0 22 30.0000000  0  7G02G31G24G25G14G29G12
 121544393.223 7  94709905.07246  23129129.040    23129126.240          45.000
        39.500
 125415480.187 7  97726350.84546  23865772.640    23865771.360          42.500
        37.000
 119171919.846 7  92861276.90446  22677651.460    22677654.080          44.750
        41.750
 108512816.119 8  84555489.48448  20649292.400    20649294.260          50.000
        48.750
 114086374.538 7  88898483.84147  21709916.820    21709916.080          47.500
        43.000
 108273662.272 8  84369105.85248  20603780.740    20603780.580          50.000
        49.500
 112521238.899 8  87678930.08347  21412062.320    21412061.520          49.500
        46.500
 14  1  8  0 23  0.0000000  0  7G02G31G24G25G14G29G12
 121539471.052 7  94706069.62846  23128192.220    23128189.520          45.000
        41.000
 125321980.959 7  97653494.29746  23847980.300    23847979.020          42.000
        37.000
 119258540.498 7  92928773.50547  22694134.860    22694137.340          44.000
        42.000
 108502803.156 8  84547687.16548  20647386.960    20647388.920          50.000
        49.000
 114101858.786 7  88910549.47947  21712863.400    21712862.620          47.250
        43.000
 108220943.511 8  84328026.29848  20593748.640    20593748.580          50.000
        49.500
 112570198.018 8  87717080.03647  21421379.020    21421378.080          49.500
        46.000
 14  1  8  0 23 30.0000000  0  7G02G31G24G25G14G29G12
 121535034.523 7  94702612.60946  23127347.920    23127345.260          45.250
        41.000
 125228547.067 6  97580688.68146  23830200.120    23830199.200          41.500
        37.750
 119345440.618 7  92996487.85846  22710671.380    22710673.860          44.500
        41.750
 108493014.134 8  84540059.33948  20645524.200    20645526.160          50.000
        48.750
 114117918.051 7  88923063.18047  21715919.380    21715918.580          47.500
        42.000
 108168710.235 8  84287325.06348  20583809.000    20583808.980          50.250
        49.500
 112619303.676 8  87755344.17947  21430723.640    21430722.560          49.500
        46.250
 14  1  8  0 24  0.0000000  0  7G02G31G24G25G14G29G12
 121531079.241 7  94699530.58346  23126595.260    23126592.620          45.000
        40.250
 125135175.565 6  97507931.66146  23812431.860    23812431.160          41.250
        38.250
 119432613.737 7  93064414.94746  22727259.860    22727262.400          44.500
        41.500
 108483444.044 8  84532602.13448  20643703.080    20643705.040          50.000
        48.750
 114134546.570 7  88936020.45947  21719083.600    21719082.900          47.250
        42.750
 108116958.809 8  84246999.30048  20573961.080    20573961.060          50.250
        49.500
 112668550.715 8  87793718.47747  21440095.200    21440093.960          49.500
        46.500
 14  1  8  0 24 30.0000000  0  7G02G31G24G25G14G29G12
 121527607.733 7  94696825.51246  23125934.680    23125932.060          45.250
        40.750
 125041869.961 6  97435226.00646  23794676.160    23794675.640          41.750
        38.500
 119520060.557 7  93132555.31247  22743900.400    22743902.920          44.000
        42.000
 108474094.540 8  84525316.79848  20641923.940    20641925.880          50.000
        48.750
 114151745.198 7  88949421.97947  21722356.360    21722355.720          47.250
        42.750
 108065691.749 8  84207050.95748  20564205.360    20564205.260          50.250
        49.500
 112717940.524 8  87832204.03147  21449493.880    21449492.500          49.250
        46.250
 14  1  8  0 25  0.0000000  0  7G02G31G24G25G14G29G12
 121524617.471 7  94694495.45046  23125365.780    23125362.920          45.000
        40.750
 124948628.782 7  97362570.54146  23776932.960    23776932.400          43.250
        38.500
 119607776.608 7  93200905.46746  22760592.160    22760594.840          44.000
        41.750
 108464962.142 8  84518200.63848  20640186.080    20640188.040          50.000
        49.000
 114169509.651 7  88963264.39247  21725736.860    21725736.260          47.000
        42.750
 108014906.548 8  84167478.08948  20554541.220    20554541.120          50.000
        49.500
 112767468.671 8  87870797.37447  21458918.780    21458917.380          49.250
        46.000
 14  1  8  0 25 30.0000000  0  7G02G31G24G25G14G29G12
 121522112.871 7  94692543.83246  23124889.220    23124886.260          45.500
        40.500
 124855457.928 7  97289969.86446  23759203.300    23759202.580          44.250
        37.000
 119695764.673 7  93269467.57546  22777335.720    22777338.520          44.500
        41.500
 108456050.719 8  84511256.67848  20638490.260    20638492.160          50.000
        48.750
 114187843.116 7  88977550.20947  21729225.580    21729225.040          46.750
        43.500
 107964608.000 8  84128284.43548  20544969.680    20544969.500          50.000
        49.500
 112817139.791 8  87909502.13547  21468370.920    21468369.520          49.750
        46.250
 14  1  8  0 26  0.0000000  0  7G02G31G24G25G14G29G12
 121520094.499 7  94690971.08346  23124505.200    23124502.080          45.500
        40.000
 124762358.942 7  97217425.18745  23741487.380    23741486.380          43.500
        35.750
 119784023.017 7  93338240.30946  22794130.740    22794133.340          44.000
        41.250
 108447359.881 8  84504484.59848  20636836.480    20636838.320          50.250
        48.500
 114206743.855 7  88992278.03947  21732822.220    21732821.660          47.000
        43.250
 107914796.646 8  84089470.41048  20535490.800    20535490.600          50.000
        49.500
 112866952.693 8  87948317.36547  21477850.040    21477848.680          49.250
        46.250
 14  1  8  0 26 30.0000000  0  7G02G31G24G25G14G29G12
 121518562.178 7  94689777.08546  23124213.660    23124210.580          45.250
        39.750
 124669333.132 7  97144937.56646  23723785.360    23723783.980          43.500
        37.500
 119872549.515 7  93407221.97346  22810976.800    22810979.260          44.250
        41.000
 108438888.779 8  84497883.74048  20635224.500    20635226.320          50.000
        48.750
 114226210.600 7  89007446.92547  21736526.620    21736526.020          47.000
        43.250
 107865472.399 8  84051035.93648  20526104.640    20526104.500          50.250
        49.500
 112916905.746 8  87987241.80047  21487355.700    21487354.440          49.000
        46.250
 14  1  8  0 27  0.0000000  0  7G02G31G24G25G14G29G12
 121517514.145 7  94688960.43646  23124014.180    23124011.160          44.750
        40.000
 124576379.789 7  97072506.36546  23706097.200    23706095.320          44.500
        38.500
 119961340.907 7  93476410.07146  22827873.380    22827875.740          44.500
        41.500
 108430634.955 8  84491452.18448  20633653.780    20633655.700          49.750
        48.750
 114246239.842 7  89023054.11947  21740338.060    21740337.500          47.250
        43.250
 107816633.949 8  84012980.00548  20516810.940    20516810.840          50.000
        49.750
 112966996.829 8  88026273.82847  21496887.580    21496886.480          49.000
        46.250
 14  1  8  0 27 30.0000000  0  7G02G31G24G25G14G29G12
 121516957.810 7  94688526.92846  23123908.240    23123905.340          44.500
        41.000
 124483507.492 7  97000138.33146  23688424.340    23688422.140          44.500
        36.750
 120050402.452 7  93545808.66946  22844821.300    22844823.560          44.750
        40.000
 108422604.938 8  84485195.03648  20632125.620    20632127.640          50.000
        48.750
 114266836.899 7  89039103.76147  21744257.580    21744257.040          47.000
        43.000
 107768288.685 8  83975308.37648  20507611.120    20507611.060          50.000
        50.000
 113017231.646 8  88065417.83247  21506446.820    21506445.900          49.000
        46.500
 14  1  8  0 28  0.0000000  0  7G02G31G24G25G14G29G12
 121516891.121 7  94688474.97946  23123895.480    23123892.620          44.750
        40.250
 124390715.589 7  96927832.96045  23670766.620    23670764.340          44.000
        35.500
 120139730.151 7  93615414.66246  22861819.880    22861822.080          44.250
        41.500
 108414796.097 8  84479110.23348  20630639.660    20630641.720          50.250
        49.000
 114287998.435 7  89055593.25947  21748284.520    21748283.980          47.250
        43.000
 107720434.577 8  83938019.46748  20498504.740    20498504.760          50.000
        49.750
 113067607.785 8  88104671.95447  21516032.960    21516032.340          49.000
        46.750
 14  1  8  0 28 30.0000000  0  7G02G31G24G25G14G29G12
 121517311.674 7  94688802.69746  23123975.500    23123972.560          45.750
        40.500
 124298003.135 7  96855589.46546  23653123.940    23653121.780          44.000
        38.250
 120229320.061 7  93685224.96346  22878868.340    22878870.600          44.250
        41.500
 108407205.385 8  84473195.38948  20629195.260    20629197.220          50.250
        48.750
 114309720.172 7  89072519.27347  21752418.040    21752417.480          47.250
        42.250
 107673069.326 8  83901111.48648  20489491.460    20489491.500          50.250
        49.750
 113118121.790 8  88144033.51847  21525645.380    21525645.060          48.750
        46.750
 14  1  8  0 29  0.0000000  0  7G02G31G24G25G14G29G12
 121518221.870 7  94689511.95946  23124148.680    23124145.740          45.250
        40.000
 124205373.896 7  96783410.86246  23635497.020    23635495.220          43.250
        39.250
 120319172.405 7  93755239.74846  22895966.820    22895969.020          44.500
        40.750
 108399834.436 8  84467451.79248  20627792.620    20627794.520          50.000
        48.750
 114332002.783 7  89089882.32947  21756658.280    21756657.720          47.250
        42.750
 107626195.689 8  83864586.58848  20480571.820    20480571.740          50.500
        49.750
 113168774.418 8  88183503.09847  21535284.240    21535284.020          49.250
        46.000
 14  1  8  0 29 30.0000000  0  7G02G31G24G25G14G29G12
 121519623.388 7  94690604.04746  23124415.280    23124412.500          44.750
        40.750
 124112830.880 7  96711299.44546  23617886.420    23617885.040          43.250
        40.000
 120409287.406 7  93825459.22346  22913115.160    22913117.240          43.750
        40.250
 108392684.563 8  84461880.46548  20626432.000    20626433.960          50.000
        49.000
 114354846.375 7  89107682.51847  21761005.340    21761004.720          47.250
        42.500
 107579815.681 8  83828446.33748  20471746.120    20471745.900          50.500
        49.750
 113219567.052 8  88223081.75847  21544949.880    21544949.500          49.250
        46.000
 14  1  8  0 30  0.0000000  0  7G02G31G24G25G14G29G12
 121521513.892 7  94692077.17346  23124774.980    23124772.280          45.000
        40.250
 124020373.116 7  96639254.45446  23600292.220    23600291.120          44.000
        40.750
 120499660.687 7  93895879.93546  22930312.480    22930314.740          43.250
        41.250
 108385752.564 8  84456478.90548  20625112.880    20625114.960          50.000
        49.000
 114378246.946 7  89125916.72546  21765458.280    21765457.640          47.000
        41.750
 107533926.836 8  83792688.81548  20463013.820    20463013.560          50.250
        50.000
 113270496.704 8  88262767.18647  21554641.680    21554640.960          49.500
        45.750
 14  1  8  0 30 30.0000000  0  7G02G31G24G25G14G29G12
 121523893.903 7  94693931.72746  23125227.880    23125225.220          44.750
        40.750
 123928002.932 7  96567277.69846  23582714.780    23582713.760          43.500
        41.000
 120590290.889 7  93966500.87346  22947558.700    22947561.100          43.250
        41.000
 108379038.631 8  84451247.28748  20623835.220    20623837.360          50.000
        49.000
 114402203.549 7  89144584.19147  21770017.040    21770016.440          47.000
        42.750
 107488529.796 8  83757314.51148  20454375.000    20454374.780          50.000
        50.000
 113321562.716 8  88302558.87447  21564359.420    21564358.360          49.250
        46.000
 14  1  8  0 31  0.0000000  0  7G02G31G24G25G14G29G12
 121526765.075 7  94696169.02346  23125774.320    23125771.500          45.000
        40.000
 123835722.938 7  96495371.24646  23565154.440    23565153.540          43.500
        41.250
 120681178.093 7  94037322.06346  22964853.900    22964856.240          44.000
        39.750
 108372543.581 8  84446186.20348  20622599.240    20622601.320          50.000
        48.500
 114426715.599 7  89163684.48447  21774681.580    21774680.960          47.250
        42.750
 107443626.387 8  83722324.86048  20445830.060    20445829.920          50.250
        50.000
 113372765.832 8  88342457.38747  21574103.120    21574101.860          49.250
        45.750
 14  1  8  0 31 30.0000000  0  7G02G31G24G25G14G29G12
 121530126.921 7  94698788.67146  23126414.040    23126411.100          44.750
        40.250
 123743534.657 7  96423536.24946  23547611.600    23547610.780          43.500
        39.500
 120772319.778 7  94108341.54846  22982197.600    22982199.900          43.750
        41.000
 108366266.620 8  84441295.05848  20621404.780    20621406.760          50.000
        48.750
 114451781.054 7  89183215.99547  21779451.380    21779450.800          47.500
        42.500
 107399216.498 8  83687719.75848  20437379.060    20437379.020          50.250
        48.250
 113424104.431 8  88382461.47647  21583872.560    21583871.180          49.250
        45.500
 14  1  8  0 32  0.0000000  0  7G02G31G24G25G14G29G12
 121533980.644 7  94701791.56446  23127147.280    23127144.320          45.000
        40.750
 123651440.623 7  96351774.67646  23530086.760    23530085.920          43.500
        41.000
 120863715.849 7  94179559.24946  22999589.760    22999592.100          44.250
        41.000
 108360208.460 8  84436574.42048  20620252.020    20620253.900          50.250
        48.750
 114477399.399 7  89203178.32747  21784326.400    21784325.820          47.000
        42.750
 107355301.183 8  83653500.03248  20429022.220    20429022.200          50.250
        50.000
 113475579.710 8  88422572.08347  21593667.980    21593666.620          49.000
        45.750
 14  1  8  0 32 30.0000000  0  7G02G31G24G25G14G29G12
 121538327.126 7  94705178.43546  23127974.380    23127971.540          45.500
        40.750
 123559443.177 7  96280088.38946  23512580.260    23512579.440          42.750
        40.750
 120955365.433 7  94250974.48946  23017030.200    23017032.380          43.750
        40.500
 108354369.758 8  84432024.77448  20619141.040    20619142.820          50.250
        48.750
 114503570.264 7  89223571.19547  21789306.560    21789305.940          47.500
        42.750
 107311882.183 8  83619667.04548  20420759.860    20420759.800          50.500
        50.000
 113527191.644 8  88462789.17347  21603489.340    21603487.980          48.750
        45.250
 14  1  8  0 33  0.0000000  0  7G02G31G24G25G14G29G12
 121543165.053 7  94708948.26346  23128894.940    23128892.400          44.750
        40.750
 123467542.696 7  96208477.63546  23495092.220    23495091.360          44.000
        39.750
 121047265.305 7  94322584.77246  23034518.240    23034520.300          43.500
        40.000
 108348748.444 8  84427644.51548  20618071.380    20618073.080          50.000
        49.000
 114530290.411 7  89244392.07547  21794391.260    21794390.700          47.250
        42.750
 107268957.634 8  83586219.35948  20412591.620    20412591.480          50.500
        50.000
 113578937.776 8  88503110.80747  21613336.140    21613334.780          48.750
        45.250
 14  1  8  0 33 30.0000000  0  7G02G31G24G25G14G29G12
 121548498.820 7  94713104.45946  23129909.780    23129907.540          44.250
        41.000
 123375745.424 7  96136947.30046  23477623.900    23477622.920          44.500
        40.750
 121139418.009 7  94394392.03746  23052054.160    23052056.480          42.000
        41.250
 108343348.611 8  84423436.83748  20617043.880    20617045.560          50.000
        48.750
 114557562.482 7  89265643.02547  21799580.980    21799580.460          47.250
        42.500
 107226532.396 8  83553160.72948  20404518.400    20404518.160          50.500
        50.000
 113630822.005 8  88543540.06447  21623209.260    21623207.920          49.000
        45.250
 14  1  8  0 34  0.0000000  0  7G02G31G24G25G14G29G12
 121554324.323 7  94717643.82146  23131018.120    23131016.160          44.000
        40.750
 123284048.563 7  96065495.21646  23460174.620    23460173.580          44.000
        40.500
 121231817.838 7  94466391.90146  23069637.120    23069639.640          42.750
        40.250
 108338165.672 8  84419398.19848  20616057.580    20616059.320          50.000
        49.000
 114585379.875 7  89287318.90747  21804874.420    21804873.940          46.750
        42.500
 107184602.525 8  83520488.13248  20396539.400    20396539.140          50.250
        50.250
 113682839.331 8  88584073.03747  21633107.740    21633106.500          48.500
        45.250
 14  1  8  0 34 30.0000000  0  7G02G31G24G25G14G29G12
 121560642.408 7  94722566.99346  23132220.360    23132218.340          44.750
        40.250
 123192454.992 7  95994123.62346  23442745.040    23442743.940          45.000
        39.500
 121324463.381 6  94538583.23046  23087266.820    23087269.420          41.500
        40.750
 108333200.003 8  84415528.84548  20615112.580    20615114.440          50.250
        48.750
 114613742.384 7  89309419.54947  21810271.600    21810271.120          46.750
        42.500
 107143168.815 8  83488202.16848  20388654.800    20388654.560          50.250
        50.000
 113734990.164 8  88624710.04247  21643031.620    21643030.540          48.500
        45.500
 14  1  8  0 35  0.0000000  0  7G02G31G24G25G14G29G12
 121567454.665 7  94727875.26646  23133516.800    23133514.600          45.000
        40.250
 123100967.565 7  95922834.73746  23425335.640    23425334.420          44.500
        39.250
 121417354.919 7  94610966.22746  23104943.360    23104946.200          42.500
        39.250
 108328453.082 8  84411829.94548  20614209.280    20614211.160          50.250
        48.750
 114642649.951 7  89331944.92047  21815772.500    21815772.080          46.750
        42.250
 107102233.336 8  83456304.42048  20380864.980    20380864.780          50.250
        50.250
 113787275.455 8  88665451.81447  21652981.140    21652980.240          48.750
        45.750
 14  1  8  0 35 30.0000000  0  7G02G31G24G25G14G29G12
 121574761.201 7  94733568.66646  23134907.240    23134904.980          44.500
        40.000
 123009588.610 7  95851630.35346  23407946.800    23407945.420          44.500
        39.750
 121510491.326 7  94683540.02046  23122666.520    23122669.540          42.500
        38.500
 108323924.847 8  84408301.45748  20613347.640    20613349.520          50.250
        48.750
 114672101.269 7  89354893.98547  21821376.800    21821376.460          46.750
        42.250
 107061796.440 8  83424795.15248  20373170.000    20373169.900          50.250
        50.250
 113839695.248 8  88706298.40147  21662956.340    21662955.640          48.500
        46.000
 14  1  8  0 36  0.0000000  0  7G02G31G24G25G14G29G12
 121582560.362 7  94739645.92546  23136391.300    23136389.080          44.000
        40.500
 122918317.880 7  95780510.30746  23390578.620    23390576.960          45.500
        38.750
 121603868.582 7  94756301.49746  23140435.620    23140438.740          42.250
        40.500
 108319612.893 8  84404941.48248  20612527.140    20612528.980          50.000
        48.750
 114702092.324 7  89378263.63247  21827083.940    21827083.560          47.000
        42.500
 107021856.247 8  83393672.94248  20365569.540    20365569.500          50.000
        50.500
 113892246.796 8  88747247.65247  21672956.600    21672956.140          48.500
        45.750
 14  1  8  0 36 30.0000000  0  7G02G31G24G25G14G29G12
 121590853.452 7  94746108.07246  23137969.200    23137967.220          44.000
        41.500
 122827158.779 7  95709477.22346  23373231.700    23373229.660          45.000
        38.500
 121697486.971 7  94829250.88746  23158250.680    23158253.900          42.250
        39.250
 108315518.461 8  84401751.01448  20611747.940    20611749.820          50.000
        48.750
 114732622.682 7  89402053.51747  21832893.760    21832893.360          47.500
        42.000
 106982414.450 8  83362939.08448  20358063.960    20358063.960          50.250
        50.250
 113944930.820 8  88788300.13347  21682982.060    21682981.800          48.500
        45.750
 14  1  8  0 37  0.0000000  0  7G02G31G24G25G14G29G12
 121599642.372 7  94752956.60546  23139641.520    23139639.660          44.000
        40.500
 122736115.261 7  95638534.24546  23355906.680    23355904.540          45.250
        39.500
 121791346.946 7  94902388.50446  23176111.780    23176114.900          42.750
        39.500
 108311643.337 8  84398731.42348  20611010.500    20611012.380          50.000
        48.750
 114763692.911 7  89426264.06347  21838806.320    21838805.820          47.000
        42.250
 106943473.426 8  83332595.46248  20350653.740    20350653.740          50.500
        50.250
 113997748.556 8  88829456.79647  21693033.100    21693032.760          49.000
        45.500
 14  1  8  0 37 30.0000000  0  7G02G31G24G25G14G29G12
 121608924.315 7  94760189.29846  23141407.760    23141405.940          44.500
        40.500
 122645185.522 7  95567679.90146  23338603.340    23338601.280          45.000
        40.000
 121885443.228 7  94975710.29446  23194017.920    23194020.700          42.500
        40.500
 108307984.256 8  84395880.17648  20610314.220    20610316.100          50.000
        48.500
 114795298.079 7  89450891.45446  21844820.680    21844820.140          47.000
        41.750
 106905030.069 8  83302639.62048  20343338.280    20343338.240          50.250
        50.500
 114050696.990 8  88870715.29847  21703109.060    21703108.540          48.750
        45.750
 14  1  8  0 38  0.0000000  0  7G02G31G24G25G14G29G12
 121618704.546 7  94767810.26946  23143268.980    23143267.180          44.000
        41.500
 122554377.074 7  95496920.08846  23321323.020    23321321.140          44.500
        39.250
 121979780.069 7  95049219.50046  23211969.660    23211972.420          42.000
        40.250
 108304546.570 8  84393201.48248  20609660.020    20609661.960          50.000
        49.000
 114827442.036 7  89475938.67446  21850937.460    21850936.860          47.000
        41.750
 106867090.192 8  83273076.08248  20336118.640    20336118.580          50.250
        50.500
 114103781.031 8  88912079.46847  21713210.720    21713210.200          48.500
        45.750
 14  1  8  0 38 30.0000000  0  7G02G31G24G25G14G29G12
 121628977.541 7  94775815.18846  23145223.900    23145222.200          44.500
        41.000
 122463686.468 7  95426252.08546  23304065.040    23304063.400          44.250
        39.250
 122074350.176 7  95122910.46846  23229965.820    23229968.540          42.250
        39.500
 108301324.269 8  84390690.57648  20609046.840    20609048.820          50.000
        49.000
 114860117.147 7  89501399.78446  21857155.260    21857154.640          46.750
        41.500
 106829648.049 8  83243900.39448  20328993.640    20328993.600          50.250
        50.500
 114156994.229 8  88953544.29447  21723336.880    21723336.280          48.500
        45.000
 14  1  8  0 39  0.0000000  0  7G02G31G24G25G14G29G12
 121639745.800 7  94784206.03146  23147273.060    23147271.400          44.500
        40.750
 122373118.173 7  95355679.39046  23286830.340    23286828.900          44.000
        40.500
 122169154.674 7  95196784.08446  23248006.580    23248009.140          42.000
        40.000
 108298319.944 8  84388349.53548  20608475.140    20608477.140          50.000
        48.750
 114893324.660 7  89527275.75147  21863474.400    21863473.740          46.750
        42.000
 106792706.637 8  83215114.89248  20321963.860    20321963.900          50.250
        50.500
 114210338.809 8  88995111.48347  21733488.020    21733487.220          48.750
        44.750
 14  1  8  0 39 30.0000000  0  7G02G31G24G25G14G29G12
 121651009.285 7  94792982.77946  23149416.500    23149414.760          44.500
        41.000
 122282674.113 7  95285203.51946  23269619.280    23269618.060          44.000
        41.250
 122264191.667 7  95270838.85746  23266091.520    23266094.100          42.500
        40.000
 108295533.304 8  84386178.13348  20607944.840    20607946.760          50.000
        48.750
 114927062.290 7  89553564.80146  21869894.480    21869893.840          47.000
        41.500
 106756266.090 8  83186719.67348  20315029.400    20315029.460          50.500
        50.500
 114263814.738 8  89036781.02047  21743664.140    21743663.220          48.500
        45.250
 14  1  8  0 40  0.0000000  0  7G02G31G24G25G14G29G12
 121662769.161 7  94802146.32646  23151654.260    23151652.460          44.000
        40.750
 122192357.400 7  95214826.89046  23252432.400    23252431.320          44.000
        40.750
 122359460.767 7  95345074.52246  23284220.620    23284223.200          42.500
        39.750
 108292965.501 8  84384177.22248  20607456.140    20607458.100          50.000
        48.750
 114961329.719 7  89580266.68647  21876415.380    21876414.780          46.500
        42.500
 106720327.557 8  83158715.63248  20308190.520    20308190.520          50.250
        50.250
 114317422.685 8  89078553.43347  21753865.380    21753864.400          48.500
        44.750
 14  1  8  0 40 30.0000000  0  7G02G31G24G25G14G29G12
 121675022.451 7  94811694.33246  23153985.940    23153984.080          44.000
        40.250
 122102167.021 7  95144548.65846  23235269.620    23235268.620          44.000
        40.500
 122454957.852 7  95419487.81046  23302393.140    23302395.600          43.250
        38.250
 108290613.592 8  84382344.55548  20607008.600    20607010.560          50.250
        48.750
 114996122.140 7  89607377.64046  21883036.080    21883035.640          46.750
        41.750
 106684888.646 8  83131100.92548  20301446.700    20301446.640          50.250
        50.500
 114371159.590 8  89120426.32847  21764091.080    21764089.980          48.000
        44.500
 14  1  8  0 41  0.0000000  0  7G02G31G24G25G14G29G12
 121687771.724 7  94821628.82746  23156412.080    23156410.080          44.250
        40.750
 122012107.655 7  95074372.56046  23218131.740    23218130.900          44.500
        41.000
 122550683.804 7  95494079.41646  23320609.260    23320611.620          42.750
        38.000
