     2.11           OBSERVATION DATA    G (GPS)             RINEX VERSION / TYPE
teqc  2015Nov6      RinexTools-CRAAG    20161009 22:22:45UTCPGM / RUN BY / DATE
Linux2.4.20-8|i386|gcc|Win32-MinGW32|=                      COMMENT
BIT 2 OF LLI FLAGS DATA COLLECTED UNDER A/S CONDITION       COMMENT
ABZH                                                        MARKER NAME
ABZH                                                        MARKER NUMBER
-Unknown-           C.R.A.A.G.                              OBSERVER / AGENCY
462405              LEICA GRX1200PRO    8.20/2.127          REC # / TYPE / VERS
                    LEIAT504        NONE                    ANT # / TYPE
  5106717.8077   270605.9299  3799529.1809                  APPROX POSITION XYZ
        0.0770        0.0000        0.0000                  ANTENNA: DELTA H/E/N
     1     1                                                WAVELENGTH FACT L1/2
     4    C1    L1    P2    L2                              # / TYPES OF OBSERV
    30.0000                                                 INTERVAL
SPIDER                                                      COMMENT
Made by Spider v4.0.0                                       COMMENT
Project creator:                                            COMMENT
                                                            COMMENT
 SNR is mapped to RINEX snr flag value [0-9]                COMMENT
  L1 & L2: min(max(int(snr_dBHz/6), 0), 9)                  COMMENT
teqc edited: all GLONASS satellites excluded                COMMENT
  2014     1     8     0     0    0.0000000     GPS         TIME OF FIRST OBS
                                                            END OF HEADER
 14  1  8  0  0  0.0000000  0  6G02G24G25G14G29G12
  23263402.680   122250006.508 7  23263400.700    95259733.03446
  21993799.060   115578254.842 7  21993801.960    90061018.95047
  20779212.380   109195550.130 8  20779214.420    85087489.78448
  21691936.800   113991890.603 7  21691936.020    88824860.31947
  21147033.060   111128470.703 8  21147033.060    86593631.36647
  21022882.640   110476087.031 8  21022881.980    86085305.63647
 14  1  8  0  0 30.0000000  0  6G02G24G25G14G29G12
  23258531.800   122224409.062 7  23258529.540    95239787.00546
  22007699.340   115651301.138 7  22007702.180    90117938.13447
  20775369.140   109175353.647 8  20775371.200    85071752.25948
  21689877.980   113981071.299 7  21689877.200    88816429.68147
  21133086.620   111055181.083 8  21133086.580    86536522.59547
  21030849.960   110517955.512 8  21030849.200    86117930.42647
 14  1  8  0  1  0.0000000  0  6G02G24G25G14G29G12
  23253745.100   122199254.192 7  23253742.560    95220185.81846
  22021663.200   115724681.389 7  22021665.900    90175117.51947
  20771572.300   109155400.755 8  20771574.280    85056204.56348
  21687933.060   113970850.852 7  21687932.380    88808465.70247
  21119223.560   110982329.822 8  21119223.420    86479755.39147
  21038852.280   110560008.016 8  21038851.520    86150698.60147
 14  1  8  0  1 30.0000000  0  7G02G31G24G25G14G29G12
  23249040.580   122174531.053 7  23249037.920    95200921.04246
  24619490.100   129376292.414 6  24619490.840   100812697.53945
  22035688.140   115798382.276 7  22035690.680    90232546.78047
  20767819.420   109135678.841 8  20767821.320    85040836.84648
  21686099.820   113961217.347 7  21686099.160    88800959.06747
  21105441.840   110909906.092 8  21105441.580    86423321.33747
  21046887.220   110602231.577 8  21046886.400    86183600.05447
 14  1  8  0  2  0.0000000  0  7G02G31G24G25G14G29G12
  23244423.780   122150269.408 7  23244421.120    95182015.88146
  24601491.400   129281709.143 6  24601491.620   100738996.29845
  22049779.400   115872431.738 7  22049781.880    90290247.64947
  20764115.760   109116215.877 8  20764117.680    85025670.89848
  21684383.780   113952199.388 7  21684383.160    88793932.07847
  21091747.180   110837939.934 8  21091746.820    86367243.82747
  21054960.020   110644653.857 8  21054959.020    86216656.36247
 14  1  8  0  2 30.0000000  0  7G02G31G24G25G14G29G12
  23239883.600   122126411.321 7  23239881.180    95163425.16046
  24583485.800   129187088.714 6  24583485.300   100665266.14045
  22063925.340   115946769.015 7  22063927.860    90348172.78447
  20760449.960   109096951.946 8  20760451.860    85010660.05748
  21682773.460   113943737.367 7  21682772.860    88787338.28747
  21078128.460   110766373.128 8  21078128.040    86311477.50347
  21063059.120   110687214.282 8  21063057.840    86249820.30947
 14  1  8  0  3  0.0000000  0  7G02G31G24G25G14G29G12
  23235426.760   122102991.446 7  23235424.500    95145175.92346
  24565479.740   129092466.101 6  24565478.460   100591534.27145
  22078132.180   116021426.511 7  22078134.700    90406347.44347
  20756828.340   109077920.137 8  20756830.120    84995830.08248
  21681275.400   113935865.072 7  21681274.760    88781204.03747
  21064592.340   110695240.720 8  21064591.980    86256049.66447
  21071190.660   110729945.169 8  21071189.220    86283117.10248
 14  1  8  0  3 30.0000000  0  7G02G31G24G25G14G29G12
  23231053.200   122080008.601 7  23231050.960    95127267.22946
  24547473.080   128997839.889 6  24547471.260   100517799.55045
  22092399.260   116096400.811 7  22092401.840    90464768.97047
  20753250.340   109059117.362 8  20753252.000    84981178.58048
  21679888.980   113928579.501 7  21679888.300    88775526.96547
  21051138.600   110624541.499 8  21051138.380    86200959.37347
  21079353.900   110772843.537 8  21079352.640    86316544.39247
 14  1  8  0  4  0.0000000  0  7G02G31G24G25G14G29G12
  23226763.800   122057467.697 7  23226761.440    95109702.90446
  24529466.500   128903214.735 6  24529464.760   100444065.68445
  22106727.100   116171694.565 7  22106729.740    90523439.42547
  20749716.480   109040546.758 8  20749718.200    84966707.98948
  21678614.900   113921884.352 7  21678614.240    88770309.96647
  21037768.200   110554280.369 8  21037768.200    86146210.46147
  21087549.480   110815911.987 8  21087548.360    86350104.20047
 14  1  8  0  4 30.0000000  0  7G02G31G24G25G14G29G12
  23222558.540   122035369.248 7  23222556.180    95092483.34646
  24511460.180   128808591.074 6  24511458.780   100370332.92745
  22121115.340   116247305.915 7  22121118.080    90582357.35647
  20746226.540   109022207.123 8  20746228.360    84952417.37548
  21677453.000   113915778.498 7  21677452.320    88765552.15147
  21024481.320   110484457.832 8  21024481.460    86091803.28048
  21095777.160   110859148.708 8  21095775.980    86383795.14847
 14  1  8  0  5  0.0000000  0  7G02G31G24G25G14G29G12
  23218437.480   122013712.918 7  23218435.120    95075608.30246
  24493454.100   128713969.042 6  24493453.100   100296601.44446
  22135563.660   116323232.396 7  22135566.400    90641520.83447
  20742780.140   109004096.636 8  20742782.080    84938305.32448
  21676403.060   113910261.055 7  21676402.480    88761252.84347
  21011278.100   110415074.164 8  21011278.220    86037738.09247
  21104036.460   110902551.294 8  21104035.260    86417615.32848
 14  1  8  0  5 30.0000000  0  7G02G31G24G25G14G29G12
  23214400.840   121992500.022 7  23214398.480    95059078.78946
  24475448.620   128619349.596 6  24475447.820   100222872.00846
  22150071.780   116399472.661 7  22150074.340    90700928.82847
  20739377.260   108986214.568 8  20739379.240    84924371.24248
  21675465.020   113905331.343 7  21675464.440    88757411.49247
  20998158.600   110346130.151 8  20998158.600    85984015.50947
  21112327.060   110946118.720 8  21112326.020    86451563.96447
 14  1  8  0  6  0.0000000  0  7G02G31G24G25G14G29G12
  23210448.700   121971731.194 7  23210446.460    95042895.30146
  24457443.920   128524733.502 6  24457443.020   100149145.21245
  22164639.420   116476025.419 7  22164641.820    90760580.32847
  20736017.740   108968560.019 8  20736019.720    84910614.45548
  21674638.560   113900988.248 7  21674637.960    88754027.25847
  20985122.880   110277626.546 8  20985122.780    85930636.08547
  21120648.720   110989849.354 8  21120647.820    86485639.77547
 14  1  8  0  6 30.0000000  0  7G02G31G24G25G14G29G12
  23206581.860   121951410.610 7  23206579.660    95027061.08446
  24439440.760   128430124.965 6  24439439.640   100075424.26845
  22179266.740   116552892.100 7  22179269.140    90820476.42747
  20732702.020   108951135.440 8  20732703.880    84897036.86548
  21673924.300   113897235.172 7  21673923.860    88751102.78847
  20972171.720   110209567.476 8  20972171.520    85877603.06147
  21129001.960   111033745.711 8  21129001.080    86519844.72047
 14  1  8  0  7  0.0000000  0  7G02G31G24G25G14G29G12
  23202800.160   121931537.288 7  23202797.800    95011575.39146
  24421438.920   128335523.569 6  24421437.640   100001708.92345
  22193953.200   116630069.987 7  22193955.700    90880615.02547
  20729429.560   108933938.329 8  20729431.340    84883636.52148
  21673321.820   113894069.318 7  21673321.420    88748635.88747
  20959304.960   110141952.269 8  20959304.680    85824915.89448
  21137386.140   111077804.835 8  21137385.120    86554176.49247
 14  1  8  0  7 30.0000000  0  7G02G31G24G25G14G29G12
  23199104.440   121912115.618 7  23199101.840    94996441.65046
  24403439.160   128240934.042 6  24403437.900    99928002.80045
  22208699.200   116707560.879 7  22208701.840    90940997.52947
  20726200.900   108916971.483 8  20726202.580    84870415.59848
  21672831.840   113891494.311 7  21672831.460    88746629.38447
  20946523.500   110074785.483 8  20946523.220    85772578.15448
  21145801.660   111122028.707 8  21145800.600    86588636.64847
 14  1  8  0  8  0.0000000  0  7G02G31G24G25G14G29G12
  23195494.740   121893146.169 7  23195492.060    94981660.27646
  24385441.580   128146356.620 6  24385440.340    99854306.09245
  22223504.380   116785363.059 7  22223507.180    91001622.58947
  20723015.840   108900233.882 8  20723017.480    84857373.31748
  21672454.040   113889508.751 7  21672453.620    88745082.18447
  20933827.560   110008067.996 8  20933827.280    85720590.50748
  21154248.220   111166416.174 8  21154247.380    86623224.26447
 14  1  8  0  8 30.0000000  0  7G02G31G24G25G14G29G12
  23191970.700   121874627.705 7  23191968.200    94967230.32746
  24367446.200   128051790.468 6  24367444.920    99780618.18945
  22238368.240   116863473.548 7  22238371.180    91062487.89647
  20719873.840   108883722.650 8  20719875.520    84844507.41848
  21672188.140   113888110.562 7  21672187.560    88743992.67447
  20921216.860   109941798.315 8  20921216.600    85668951.78248
  21162725.320   111210963.866 8  21162724.560    86657936.74947
 14  1  8  0  9  0.0000000  0  7G02G31G24G25G14G29G12
  23188532.660   121856561.632 7  23188530.480    94953152.88146
  24349453.300   127957237.219 7  24349451.880    99706940.35545
  22253290.580   116941890.796 7  22253293.580    91123592.23647
  20716774.860   108867437.610 8  20716776.620    84831817.77748
  21672033.780   113887298.757 7  21672033.100    88743360.09247
  20908691.620   109875977.814 8  20908691.420    85617663.09248
  21171232.840   111255671.325 8  21171232.000    86692773.73047
 14  1  8  0  9 30.0000000  0  7G02G31G24G25G14G29G12
  23185181.100   121838949.993 7  23185179.160    94939429.53646
  24331463.340   127862699.506 7  24331462.000    99633274.61746
  22268271.480   117020615.439 7  22268274.460    91184936.08547
  20713719.060   108851379.473 8  20713720.880    84819304.96348
  21671991.180   113887074.438 7  21671990.380    88743185.30047
  20896252.220   109810608.764 8  20896252.100    85566726.17248
  21179770.700   111300538.478 8  21179769.800    86727735.14347
 14  1  8  0 10  0.0000000  0  7G02G31G24G25G14G29G12
  23181916.560   121821794.606 7  23181914.520    94926061.71346
  24313476.660   127768179.102 7  24313475.400    99559622.38946
  22283310.680   117099646.516 7  22283313.560    91246518.73947
  20710706.400   108835548.368 8  20710708.340    84806969.04348
  21672060.360   113887438.112 7  21672059.560    88743468.67847
  20883899.140   109745693.553 8  20883899.140    85516142.89948
  21188339.040   111345565.540 8  21188338.100    86762821.17147
 14  1  8  0 10 30.0000000  0  7G02G31G24G25G14G29G12
  23178739.220   121805097.107 7  23178736.900    94913050.69746
  24295493.660   127673678.059 7  24295492.480    99485985.22346
  22298408.060   117178983.763 7  22298410.840    91308339.95647
  20707737.040   108819944.578 8  20707739.000    84794810.24448
  21672241.520   113888389.962 7  21672240.700    88744210.36547
  20871632.720   109681233.399 8  20871632.780    85465914.23448
  21196937.760   111390751.691 8  21196936.720    86798031.15247
 14  1  8  0 11  0.0000000  0  7G02G31G24G25G14G29G12
  23175649.160   121788858.293 7  23175646.580    94900397.08446
  24277514.560   127579197.524 7  24277513.340    99412364.04946
  22313563.360   117258625.423 7  22313566.180    91370398.37847
  20704810.880   108804567.469 8  20704812.780    84782828.09248
  21672534.440   113889929.107 7  21672533.560    88745409.69347
  20859453.140   109617229.363 8  20859453.200    85416040.97848
  21205566.580   111436096.288 8  21205565.480    86833364.59947
 14  1  8  0 11 30.0000000  0  7G02G31G24G25G14G29G12
  23172646.660   121773080.154 7  23172644.060    94888102.43346
  24259539.740   127484739.896 7  24259538.360    99338760.72546
  22328776.480   117338570.924 7  22328779.240    91432693.56147
  20701927.980   108789417.489 8  20701929.880    84771022.93648
  21672939.140   113892056.132 7  21672938.380    88747067.09747
  20847360.760   109553683.275 8  20847360.720    85366524.57248
  21214225.620   111481599.698 8  21214224.320    86868821.80547
 14  1  8  0 12  0.0000000  0  7G02G31G24G25G14G29G12
  23169731.860   121757762.816 7  23169729.380    94876166.86946
  24241569.280   127390305.539 7  24241567.940    99265175.53346
  22344047.120   117418818.878 7  22344049.780    91495224.43347
  20699087.980   108774493.188 8  20699089.900    84759393.60148
  21673455.460   113894769.523 7  21673454.800    88749181.41747
  20835355.560   109490595.416 8  20835355.480    85317365.21348
  21222914.440   111527259.466 8  21222913.040    86904400.83747
 14  1  8  0 12 30.0000000  0  7G02G31G24G25G14G29G12
  23166904.980   121742907.527 7  23166902.680    94864591.34046
  24223603.560   127295896.021 6  24223602.380    99191609.68746
  22359375.060   117499367.952 7  22359377.700    91557989.93847
  20696290.820   108759794.341 8  20696292.720    84747939.95848
  21674083.320   113898068.983 7  21674082.740    88751752.42147
  20823437.740   109427966.993 8  20823437.740    85268563.86548
  21231632.840   111573075.057 8  21231631.580    86940101.27747
 14  1  8  0 13  0.0000000  0  7G02G31G24G25G14G29G12
  23164165.900   121728513.914 7  23164163.780    94853375.52546
  24205642.760   127201512.084 6  24205641.800    99118063.78646
  22374759.920   117580215.918 7  22374762.580    91620988.34747
  20693536.340   108745319.567 8  20693538.160    84736660.91948
  21674822.420   113901953.030 7  21674821.840    88754778.94047
  20811607.340   109365798.113 8  20811607.480    85220120.58448
  21240380.640   111619045.169 8  21240379.560    86975922.13147
 14  1  8  0 13 30.0000000  0  7G02G31G24G25G14G29G12
  23161515.040   121714583.538 7  23161512.860    94842520.69246
  24187687.300   127107155.334 7  24187686.380    99044539.08546
  22390201.520   117661362.168 7  22390204.180    91684219.18047
  20690824.540   108731068.909 8  20690826.360    84725556.51748
  21675672.640   113906421.413 7  21675672.080    88758260.78347
  20799864.620   109304090.071 8  20799864.880    85172036.40048
  21249157.880   111665169.538 8  21249156.840    87011863.20047
 14  1  8  0 14  0.0000000  0  7G02G31G24G25G14G29G12
  23158952.720   121701118.200 7  23158950.400    94832028.24846
  24169737.600   127012828.217 7  24169736.580    98971037.45045
  22405699.800   117742806.138 7  22405702.500    91747682.00247
  20688155.480   108717042.875 8  20688157.320    84714627.13048
  21676634.220   113911474.500 7  21676633.620    88762198.23747
  20788210.020   109242844.990 8  20788210.360    85124312.96248
  21257964.420   111711448.023 8  21257963.460    87047924.36247
 14  1  8  0 14 30.0000000  0  7G02G31G24G25G14G29G12
  23156479.260   121688119.303 7  23156476.760    94821899.25846
  24151793.960   126918532.612 6  24151792.760    98897560.35546
  22421254.580   117824547.226 7  22421257.380    91811376.33947
  20685529.180   108703241.652 8  20685531.080    84703872.94448
  21677707.100   113917112.339 7  21677706.360    88766591.35047
  20776643.980   109182064.813 8  20776644.260    85076951.79348
  21266800.020   111757879.848 8  21266799.180    87084104.98047
 14  1  8  0 15  0.0000000  0  7G02G31G24G25G14G29G12
  23154094.860   121675589.120 7  23154092.380    94812135.48546
  24133856.780   126824271.509 6  24133855.560    98824110.14746
  22436865.940   117906585.803 7  22436868.840    91875302.47847
  20682945.880   108689666.069 8  20682947.760    84693294.57048
  21678891.340   113923335.580 7  21678890.600    88771440.63147
  20765166.840   109121751.405 8  20765166.960    85029954.33948
  21275665.040   111804466.316 8  21275664.220    87120406.11747
 14  1  8  0 15 30.0000000  0  7G02G31G24G25G14G29G12
  23151800.020   121663530.456 7  23151797.660    94802739.14846
  24115926.640   126730048.216 6  24115925.660    98750689.41145
  22452533.900   117988922.024 7  22452536.960    91939460.56847
  20680405.820   108676317.756 8  20680407.640    84682893.29548
  21680187.240   113930145.470 7  21680186.520    88776747.02547
  20753779.100   109061907.768 8  20753779.040    84983322.93748
  21284559.740   111851208.487 8  21284558.880    87156828.59147
 14  1  8  0 16  0.0000000  0  7G02G31G24G25G14G29G12
  23149593.760   121651937.853 7  23149591.720    94793705.95146
  24098002.900   126635858.119 7  24098001.860    98677294.53746
  22468257.220   118071548.883 7  22468260.400    92003845.12847
  20677907.620   108663189.955 8  20677909.460    84672663.85448
  21681593.380   113937534.978 7  21681592.700    88782505.08047
  20742479.680   109002528.589 8  20742479.480    84937053.46448
  21293482.580   111898098.446 8  21293481.700    87193366.21347
 14  1  8  0 16 30.0000000  0  7G02G31G24G25G14G29G12
  23147476.780   121640814.106 7  23147474.980    94785038.09646
  24080086.120   126541704.211 7  24080084.960    98603927.86346
  22484036.020   118154466.614 7  22484039.160    92068456.33647
  20675451.600   108650283.985 8  20675453.520    84662607.26448
  21683110.040   113945505.011 7  21683109.360    88788715.48647
  20731269.080   108943616.601 8  20731268.900    84891148.03148
  21302433.860   111945137.827 8  21302432.980    87230020.26147
 14  1  8  0 17  0.0000000  0  7G02G31G24G25G14G29G12
  23145449.880   121630162.909 7  23145448.060    94776738.47246
  24062177.120   126447591.258 7  24062175.820    98530593.11946
  22499870.500   118237676.890 7  22499873.540    92133295.50647
  20673038.400   108637602.769 8  20673040.380    84652725.80448
  21684737.600   113954058.215 7  21684736.980    88795380.30547
  20720148.100   108885175.730 8  20720147.980    84845609.70248
  21311414.160   111992329.617 8  21311413.220    87266793.06047
 14  1  8  0 17 30.0000000  0  7G02G31G24G25G14G29G12
  23143513.200   121619985.285 7  23143511.140    94768807.85846
  24044276.220   126353521.015 7  24044274.620    98457291.62746
  22515760.460   118321178.815 7  22515763.420    92198361.93747
  20670667.940   108625145.774 8  20670669.900    84643019.06448
  21686475.980   113963193.653 7  21686475.480    88802498.82647
  20709116.940   108827206.972 8  20709116.840    84800439.25348
  21320423.400   112039672.720 8  21320422.320    87303683.77947
 14  1  8  0 18  0.0000000  0  7G02G31G24G25G14G29G12
  23141666.660   121610281.050 7  23141664.400    94761246.15346
  24026383.440   126259493.638 7  24026381.780    98384023.54946
  22531705.360   118404969.499 7  22531708.240    92263653.37547
  20668339.900   108612911.854 8  20668341.860    84633486.14648
  21688324.860   113972909.845 7  21688324.440    88810069.88147
  20698175.660   108769710.407 8  20698175.560    84755636.74748
  21329461.020   112087164.856 8  21329459.800    87340690.63047
 14  1  8  0 18 30.0000000  0  7G02G31G24G25G14G29G12
  23139910.300   121601050.995 7  23139907.940    94754053.91546
  24008499.140   126165511.041 7  24008497.520    98310790.39446
  22547705.220   118489048.884 7  22547708.080    92329169.74647
  20666054.200   108600900.855 8  20666056.280    84624126.92848
  21690284.180   113983206.036 7  21690283.800    88818092.87547
  20687324.460   108712687.039 8  20687324.340    84711202.97548
  21338526.980   112134806.088 8  21338525.680    87377813.66647
 14  1  8  0 19  0.0000000  0  7G02G31G24G25G14G29G12
  23138244.220   121592295.399 7  23138241.840    94747231.38346
  23990623.640   126071574.662 7  23990622.100    98237593.22446
  22563759.560   118573414.456 7  22563762.260    92394909.15147
  20663810.840   108589111.924 8  20663812.960    84614940.75848
  21692353.620   113994080.941 7  21692353.320    88826566.82047
  20676563.420   108656137.408 8  20676563.300    84667138.31948
  21347621.040   112182595.401 8  21347619.720    87415052.07647
 14  1  8  0 19 30.0000000  0  7G02G31G24G25G14G29G12
  23136668.800   121584016.553 7  23136666.440    94740780.32246
  23972757.480   125977687.584 7  23972756.100    98164434.46746
  22579868.420   118658066.550 7  22579870.940    92460871.81846
  20661609.940   108577545.904 8  20661612.000    84605928.28348
  21694533.240   114005535.079 7  21694532.980    88835492.11947
  20665892.960   108600063.778 8  20665892.840    84623444.59648
  21356743.200   112230532.996 8  21356741.880    87452406.04847
 14  1  8  0 20  0.0000000  0  7G02G31G24G25G14G29G12
  23135184.600   121576217.040 7  23135182.260    94734702.79046
  23954901.140   125883852.601 7  23954900.020    98091316.30546
  22596031.760   118743005.709 7  22596034.400    92527058.16147
  20659451.700   108566204.634 8  20659453.820    84597090.93248
  21696823.340   114017569.591 7  21696823.080    88844869.65447
  20655313.620   108544468.737 8  20655313.460    84580123.78548
  21365893.920   112278620.546 8  21365892.680    87489876.84647
 14  1  8  0 20 30.0000000  0  7G02G31G24G25G14G29G12
  23133791.240   121568894.461 7  23133788.800    94728996.90646
  23937054.480   125790068.582 7  23937053.560    98018237.87546
  22612248.860   118828227.405 7  22612251.640    92593464.66346
  20657335.600   108555084.566 8  20657337.760    84588425.94648
  21699223.140   114030180.499 7  21699222.840    88854696.32847
  20644824.940   108489350.113 8  20644824.740    84537174.23448
  21375072.440   112326854.023 8  21375071.240    87527461.37147
 14  1  8  0 21  0.0000000  0  7G02G31G24G25G14G29G12
  23132488.680   121562048.421 7  23132485.980    94723662.34246
  23919217.760   125696335.854 7  23919216.700    97945199.37646
  22628519.280   118913729.239 7  22628522.080    92660089.45647
  20655261.420   108544184.275 8  20655263.500    84579932.21048
  21701732.280   114043365.774 7  21701731.860    88864970.56647
  20634426.840   108434707.545 8  20634426.600    84494595.61848
  21384278.280   112375231.649 8  21384277.240    87565158.21247
 14  1  8  0 21 30.0000000  0  7G02G31G24G25G14G29G12
  23131277.580   121555683.052 7  23131274.700    94718702.32946
  23901391.800   125602659.734 7  23901390.640    97872205.01346
  22644843.440   118999513.294 7  22644846.200    92726934.15847
  20653229.700   108533506.907 8  20653231.620    84571612.17548
  21704351.200   114057127.743 7  21704350.600    88875694.15647
  20624120.120   108380545.481 8  20624119.840    84452391.44148
  21393511.980   112423755.430 8  21393511.040    87602968.94247
 14  1  8  0 22  0.0000000  0  7G02G31G24G25G14G29G12
  23130157.500   121549796.989 7  23130154.620    94714115.79946
  23883576.500   125509039.769 7  23883575.300    97799254.39946
  22661220.760   119085576.537 7  22661223.500    92793996.41547
  20651239.880   108523050.130 8  20651241.720    84563464.04248
  21707079.300   114071463.414 7  21707078.600    88886864.79447
  20613904.520   108326862.556 8  20613904.260    84410560.61748
  21402773.160   112472423.908 8  21402772.360    87640892.43847
 14  1  8  0 22 30.0000000  0  7G02G31G24G25G14G29G12
  23129129.040   121544393.223 7  23129126.240    94709905.07246
  23865772.640   125415480.187 7  23865771.360    97726350.84546
  22677651.460   119171919.846 7  22677654.080    92861276.90446
  20649292.400   108512816.119 8  20649294.260    84555489.48448
  21709916.820   114086374.538 7  21709916.080    88898483.84147
  20603780.740   108273662.272 8  20603780.580    84369105.85248
  21412062.320   112521238.899 8  21412061.520    87678930.08347
 14  1  8  0 23  0.0000000  0  7G02G31G24G25G14G29G12
  23128192.220   121539471.052 7  23128189.520    94706069.62846
  23847980.300   125321980.959 7  23847979.020    97653494.29746
  22694134.860   119258540.498 7  22694137.340    92928773.50547
  20647386.960   108502803.156 8  20647388.920    84547687.16548
  21712863.400   114101858.786 7  21712862.620    88910549.47947
  20593748.640   108220943.511 8  20593748.580    84328026.29848
  21421379.020   112570198.018 8  21421378.080    87717080.03647
 14  1  8  0 23 30.0000000  0  7G02G31G24G25G14G29G12
  23127347.920   121535034.523 7  23127345.260    94702612.60946
  23830200.120   125228547.067 6  23830199.200    97580688.68146
  22710671.380   119345440.618 7  22710673.860    92996487.85846
  20645524.200   108493014.134 8  20645526.160    84540059.33948
  21715919.380   114117918.051 7  21715918.580    88923063.18047
  20583809.000   108168710.235 8  20583808.980    84287325.06348
  21430723.640   112619303.676 8  21430722.560    87755344.17947
 14  1  8  0 24  0.0000000  0  7G02G31G24G25G14G29G12
  23126595.260   121531079.241 7  23126592.620    94699530.58346
  23812431.860   125135175.565 6  23812431.160    97507931.66146
  22727259.860   119432613.737 7  22727262.400    93064414.94746
  20643703.080   108483444.044 8  20643705.040    84532602.13448
  21719083.600   114134546.570 7  21719082.900    88936020.45947
  20573961.080   108116958.809 8  20573961.060    84246999.30048
  21440095.200   112668550.715 8  21440093.960    87793718.47747
 14  1  8  0 24 30.0000000  0  7G02G31G24G25G14G29G12
  23125934.680   121527607.733 7  23125932.060    94696825.51246
  23794676.160   125041869.961 6  23794675.640    97435226.00646
  22743900.400   119520060.557 7  22743902.920    93132555.31247
  20641923.940   108474094.540 8  20641925.880    84525316.79848
  21722356.360   114151745.198 7  21722355.720    88949421.97947
  20564205.360   108065691.749 8  20564205.260    84207050.95748
  21449493.880   112717940.524 8  21449492.500    87832204.03147
 14  1  8  0 25  0.0000000  0  7G02G31G24G25G14G29G12
  23125365.780   121524617.471 7  23125362.920    94694495.45046
  23776932.960   124948628.782 7  23776932.400    97362570.54146
  22760592.160   119607776.608 7  22760594.840    93200905.46746
  20640186.080   108464962.142 8  20640188.040    84518200.63848
  21725736.860   114169509.651 7  21725736.260    88963264.39247
  20554541.220   108014906.548 8  20554541.120    84167478.08948
  21458918.780   112767468.671 8  21458917.380    87870797.37447
 14  1  8  0 25 30.0000000  0  7G02G31G24G25G14G29G12
  23124889.220   121522112.871 7  23124886.260    94692543.83246
  23759203.300   124855457.928 7  23759202.580    97289969.86446
  22777335.720   119695764.673 7  22777338.520    93269467.57546
  20638490.260   108456050.719 8  20638492.160    84511256.67848
  21729225.580   114187843.116 7  21729225.040    88977550.20947
  20544969.680   107964608.000 8  20544969.500    84128284.43548
  21468370.920   112817139.791 8  21468369.520    87909502.13547
 14  1  8  0 26  0.0000000  0  7G02G31G24G25G14G29G12
  23124505.200   121520094.499 7  23124502.080    94690971.08346
  23741487.380   124762358.942 7  23741486.380    97217425.18745
  22794130.740   119784023.017 7  22794133.340    93338240.30946
  20636836.480   108447359.881 8  20636838.320    84504484.59848
  21732822.220   114206743.855 7  21732821.660    88992278.03947
  20535490.800   107914796.646 8  20535490.600    84089470.41048
  21477850.040   112866952.693 8  21477848.680    87948317.36547
 14  1  8  0 26 30.0000000  0  7G02G31G24G25G14G29G12
  23124213.660   121518562.178 7  23124210.580    94689777.08546
  23723785.360   124669333.132 7  23723783.980    97144937.56646
  22810976.800   119872549.515 7  22810979.260    93407221.97346
  20635224.500   108438888.779 8  20635226.320    84497883.74048
  21736526.620   114226210.600 7  21736526.020    89007446.92547
  20526104.640   107865472.399 8  20526104.500    84051035.93648
  21487355.700   112916905.746 8  21487354.440    87987241.80047
 14  1  8  0 27  0.0000000  0  7G02G31G24G25G14G29G12
  23124014.180   121517514.145 7  23124011.160    94688960.43646
  23706097.200   124576379.789 7  23706095.320    97072506.36546
  22827873.380   119961340.907 7  22827875.740    93476410.07146
  20633653.780   108430634.955 8  20633655.700    84491452.18448
  21740338.060   114246239.842 7  21740337.500    89023054.11947
  20516810.940   107816633.949 8  20516810.840    84012980.00548
  21496887.580   112966996.829 8  21496886.480    88026273.82847
 14  1  8  0 27 30.0000000  0  7G02G31G24G25G14G29G12
  23123908.240   121516957.810 7  23123905.340    94688526.92846
  23688424.340   124483507.492 7  23688422.140    97000138.33146
  22844821.300   120050402.452 7  22844823.560    93545808.66946
  20632125.620   108422604.938 8  20632127.640    84485195.03648
  21744257.580   114266836.899 7  21744257.040    89039103.76147
  20507611.120   107768288.685 8  20507611.060    83975308.37648
  21506446.820   113017231.646 8  21506445.900    88065417.83247
 14  1  8  0 28  0.0000000  0  7G02G31G24G25G14G29G12
  23123895.480   121516891.121 7  23123892.620    94688474.97946
  23670766.620   124390715.589 7  23670764.340    96927832.96045
  22861819.880   120139730.151 7  22861822.080    93615414.66246
  20630639.660   108414796.097 8  20630641.720    84479110.23348
  21748284.520   114287998.435 7  21748283.980    89055593.25947
  20498504.740   107720434.577 8  20498504.760    83938019.46748
  21516032.960   113067607.785 8  21516032.340    88104671.95447
 14  1  8  0 28 30.0000000  0  7G02G31G24G25G14G29G12
  23123975.500   121517311.674 7  23123972.560    94688802.69746
  23653123.940   124298003.135 7  23653121.780    96855589.46546
  22878868.340   120229320.061 7  22878870.600    93685224.96346
  20629195.260   108407205.385 8  20629197.220    84473195.38948
  21752418.040   114309720.172 7  21752417.480    89072519.27347
  20489491.460   107673069.326 8  20489491.500    83901111.48648
  21525645.380   113118121.790 8  21525645.060    88144033.51847
 14  1  8  0 29  0.0000000  0  7G02G31G24G25G14G29G12
  23124148.680   121518221.870 7  23124145.740    94689511.95946
  23635497.020   124205373.896 7  23635495.220    96783410.86246
  22895966.820   120319172.405 7  22895969.020    93755239.74846
  20627792.620   108399834.436 8  20627794.520    84467451.79248
  21756658.280   114332002.783 7  21756657.720    89089882.32947
  20480571.820   107626195.689 8  20480571.740    83864586.58848
  21535284.240   113168774.418 8  21535284.020    88183503.09847
 14  1  8  0 29 30.0000000  0  7G02G31G24G25G14G29G12
  23124415.280   121519623.388 7  23124412.500    94690604.04746
  23617886.420   124112830.880 7  23617885.040    96711299.44546
  22913115.160   120409287.406 7  22913117.240    93825459.22346
  20626432.000   108392684.563 8  20626433.960    84461880.46548
  21761005.340   114354846.375 7  21761004.720    89107682.51847
  20471746.120   107579815.681 8  20471745.900    83828446.33748
  21544949.880   113219567.052 8  21544949.500    88223081.75847
 14  1  8  0 30  0.0000000  0  7G02G31G24G25G14G29G12
  23124774.980   121521513.892 7  23124772.280    94692077.17346
  23600292.220   124020373.116 7  23600291.120    96639254.45446
  22930312.480   120499660.687 7  22930314.740    93895879.93546
  20625112.880   108385752.564 8  20625114.960    84456478.90548
  21765458.280   114378246.946 7  21765457.640    89125916.72546
  20463013.820   107533926.836 8  20463013.560    83792688.81548
  21554641.680   113270496.704 8  21554640.960    88262767.18647
 14  1  8  0 30 30.0000000  0  7G02G31G24G25G14G29G12
  23125227.880   121523893.903 7  23125225.220    94693931.72746
  23582714.780   123928002.932 7  23582713.760    96567277.69846
  22947558.700   120590290.889 7  22947561.100    93966500.87346
  20623835.220   108379038.631 8  20623837.360    84451247.28748
  21770017.040   114402203.549 7  21770016.440    89144584.19147
  20454375.000   107488529.796 8  20454374.780    83757314.51148
  21564359.420   113321562.716 8  21564358.360    88302558.87447
 14  1  8  0 31  0.0000000  0  7G02G31G24G25G14G29G12
  23125774.320   121526765.075 7  23125771.500    94696169.02346
  23565154.440   123835722.938 7  23565153.540    96495371.24646
  22964853.900   120681178.093 7  22964856.240    94037322.06346
  20622599.240   108372543.581 8  20622601.320    84446186.20348
  21774681.580   114426715.599 7  21774680.960    89163684.48447
  20445830.060   107443626.387 8  20445829.920    83722324.86048
  21574103.120   113372765.832 8  21574101.860    88342457.38747
 14  1  8  0 31 30.0000000  0  7G02G31G24G25G14G29G12
  23126414.040   121530126.921 7  23126411.100    94698788.67146
  23547611.600   123743534.657 7  23547610.780    96423536.24946
  22982197.600   120772319.778 7  22982199.900    94108341.54846
  20621404.780   108366266.620 8  20621406.760    84441295.05848
  21779451.380   114451781.054 7  21779450.800    89183215.99547
  20437379.060   107399216.498 8  20437379.020    83687719.75848
  21583872.560   113424104.431 8  21583871.180    88382461.47647
 14  1  8  0 32  0.0000000  0  7G02G31G24G25G14G29G12
  23127147.280   121533980.644 7  23127144.320    94701791.56446
  23530086.760   123651440.623 7  23530085.920    96351774.67646
  22999589.760   120863715.849 7  22999592.100    94179559.24946
  20620252.020   108360208.460 8  20620253.900    84436574.42048
  21784326.400   114477399.399 7  21784325.820    89203178.32747
  20429022.220   107355301.183 8  20429022.200    83653500.03248
  21593667.980   113475579.710 8  21593666.620    88422572.08347
 14  1  8  0 32 30.0000000  0  7G02G31G24G25G14G29G12
  23127974.380   121538327.126 7  23127971.540    94705178.43546
  23512580.260   123559443.177 7  23512579.440    96280088.38946
  23017030.200   120955365.433 7  23017032.380    94250974.48946
  20619141.040   108354369.758 8  20619142.820    84432024.77448
  21789306.560   114503570.264 7  21789305.940    89223571.19547
  20420759.860   107311882.183 8  20420759.800    83619667.04548
  21603489.340   113527191.644 8  21603487.980    88462789.17347
 14  1  8  0 33  0.0000000  0  7G02G31G24G25G14G29G12
  23128894.940   121543165.053 7  23128892.400    94708948.26346
  23495092.220   123467542.696 7  23495091.360    96208477.63546
  23034518.240   121047265.305 7  23034520.300    94322584.77246
  20618071.380   108348748.444 8  20618073.080    84427644.51548
  21794391.260   114530290.411 7  21794390.700    89244392.07547
  20412591.620   107268957.634 8  20412591.480    83586219.35948
  21613336.140   113578937.776 8  21613334.780    88503110.80747
 14  1  8  0 33 30.0000000  0  7G02G31G24G25G14G29G12
  23129909.780   121548498.820 7  23129907.540    94713104.45946
  23477623.900   123375745.424 7  23477622.920    96136947.30046
  23052054.160   121139418.009 7  23052056.480    94394392.03746
  20617043.880   108343348.611 8  20617045.560    84423436.83748
  21799580.980   114557562.482 7  21799580.460    89265643.02547
  20404518.400   107226532.396 8  20404518.160    83553160.72948
  21623209.260   113630822.005 8  21623207.920    88543540.06447
 14  1  8  0 34  0.0000000  0  7G02G31G24G25G14G29G12
  23131018.120   121554324.323 7  23131016.160    94717643.82146
  23460174.620   123284048.563 7  23460173.580    96065495.21646
  23069637.120   121231817.838 7  23069639.640    94466391.90146
  20616057.580   108338165.672 8  20616059.320    84419398.19848
  21804874.420   114585379.875 7  21804873.940    89287318.90747
  20396539.400   107184602.525 8  20396539.140    83520488.13248
  21633107.740   113682839.331 8  21633106.500    88584073.03747
 14  1  8  0 34 30.0000000  0  7G02G31G24G25G14G29G12
  23132220.360   121560642.408 7  23132218.340    94722566.99346
  23442745.040   123192454.992 7  23442743.940    95994123.62346
  23087266.820   121324463.381 6  23087269.420    94538583.23046
  20615112.580   108333200.003 8  20615114.440    84415528.84548
  21810271.600   114613742.384 7  21810271.120    89309419.54947
  20388654.800   107143168.815 8  20388654.560    83488202.16848
  21643031.620   113734990.164 8  21643030.540    88624710.04247
 14  1  8  0 35  0.0000000  0  7G02G31G24G25G14G29G12
  23133516.800   121567454.665 7  23133514.600    94727875.26646
  23425335.640   123100967.565 7  23425334.420    95922834.73746
  23104943.360   121417354.919 7  23104946.200    94610966.22746
  20614209.280   108328453.082 8  20614211.160    84411829.94548
  21815772.500   114642649.951 7  21815772.080    89331944.92047
  20380864.980   107102233.336 8  20380864.780    83456304.42048
  21652981.140   113787275.455 8  21652980.240    88665451.81447
 14  1  8  0 35 30.0000000  0  7G02G31G24G25G14G29G12
  23134907.240   121574761.201 7  23134904.980    94733568.66646
  23407946.800   123009588.610 7  23407945.420    95851630.35346
  23122666.520   121510491.326 7  23122669.540    94683540.02046
  20613347.640   108323924.847 8  20613349.520    84408301.45748
  21821376.800   114672101.269 7  21821376.460    89354893.98547
  20373170.000   107061796.440 8  20373169.900    83424795.15248
  21662956.340   113839695.248 8  21662955.640    88706298.40147
 14  1  8  0 36  0.0000000  0  7G02G31G24G25G14G29G12
  23136391.300   121582560.362 7  23136389.080    94739645.92546
  23390578.620   122918317.880 7  23390576.960    95780510.30746
  23140435.620   121603868.582 7  23140438.740    94756301.49746
  20612527.140   108319612.893 8  20612528.980    84404941.48248
  21827083.940   114702092.324 7  21827083.560    89378263.63247
  20365569.540   107021856.247 8  20365569.500    83393672.94248
  21672956.600   113892246.796 8  21672956.140    88747247.65247
 14  1  8  0 36 30.0000000  0  7G02G31G24G25G14G29G12
  23137969.200   121590853.452 7  23137967.220    94746108.07246
  23373231.700   122827158.779 7  23373229.660    95709477.22346
  23158250.680   121697486.971 7  23158253.900    94829250.88746
  20611747.940   108315518.461 8  20611749.820    84401751.01448
  21832893.760   114732622.682 7  21832893.360    89402053.51747
  20358063.960   106982414.450 8  20358063.960    83362939.08448
  21682982.060   113944930.820 8  21682981.800    88788300.13347
 14  1  8  0 37  0.0000000  0  7G02G31G24G25G14G29G12
  23139641.520   121599642.372 7  23139639.660    94752956.60546
  23355906.680   122736115.261 7  23355904.540    95638534.24546
  23176111.780   121791346.946 7  23176114.900    94902388.50446
  20611010.500   108311643.337 8  20611012.380    84398731.42348
  21838806.320   114763692.911 7  21838805.820    89426264.06347
  20350653.740   106943473.426 8  20350653.740    83332595.46248
  21693033.100   113997748.556 8  21693032.760    88829456.79647
 14  1  8  0 37 30.0000000  0  7G02G31G24G25G14G29G12
  23141407.760   121608924.315 7  23141405.940    94760189.29846
  23338603.340   122645185.522 7  23338601.280    95567679.90146
  23194017.920   121885443.228 7  23194020.700    94975710.29446
  20610314.220   108307984.256 8  20610316.100    84395880.17648
  21844820.680   114795298.079 7  21844820.140    89450891.45446
  20343338.280   106905030.069 8  20343338.240    83302639.62048
  21703109.060   114050696.990 8  21703108.540    88870715.29847
 14  1  8  0 38  0.0000000  0  7G02G31G24G25G14G29G12
  23143268.980   121618704.546 7  23143267.180    94767810.26946
  23321323.020   122554377.074 7  23321321.140    95496920.08846
  23211969.660   121979780.069 7  23211972.420    95049219.50046
  20609660.020   108304546.570 8  20609661.960    84393201.48248
  21850937.460   114827442.036 7  21850936.860    89475938.67446
  20336118.640   106867090.192 8  20336118.580    83273076.08248
  21713210.720   114103781.031 8  21713210.200    88912079.46847
 14  1  8  0 38 30.0000000  0  7G02G31G24G25G14G29G12
  23145223.900   121628977.541 7  23145222.200    94775815.18846
  23304065.040   122463686.468 7  23304063.400    95426252.08546
  23229965.820   122074350.176 7  23229968.540    95122910.46846
  20609046.840   108301324.269 8  20609048.820    84390690.57648
  21857155.260   114860117.147 7  21857154.640    89501399.78446
  20328993.640   106829648.049 8  20328993.600    83243900.39448
  21723336.880   114156994.229 8  21723336.280    88953544.29447
 14  1  8  0 39  0.0000000  0  7G02G31G24G25G14G29G12
  23147273.060   121639745.800 7  23147271.400    94784206.03146
  23286830.340   122373118.173 7  23286828.900    95355679.39046
  23248006.580   122169154.674 7  23248009.140    95196784.08446
  20608475.140   108298319.944 8  20608477.140    84388349.53548
  21863474.400   114893324.660 7  21863473.740    89527275.75147
  20321963.860   106792706.637 8  20321963.900    83215114.89248
  21733488.020   114210338.809 8  21733487.220    88995111.48347
 14  1  8  0 39 30.0000000  0  7G02G31G24G25G14G29G12
  23149416.500   121651009.285 7  23149414.760    94792982.77946
  23269619.280   122282674.113 7  23269618.060    95285203.51946
  23266091.520   122264191.667 7  23266094.100    95270838.85746
  20607944.840   108295533.304 8  20607946.760    84386178.13348
  21869894.480   114927062.290 7  21869893.840    89553564.80146
  20315029.400   106756266.090 8  20315029.460    83186719.67348
  21743664.140   114263814.738 8  21743663.220    89036781.02047
 14  1  8  0 40  0.0000000  0  7G02G31G24G25G14G29G12
  23151654.260   121662769.161 7  23151652.460    94802146.32646
  23252432.400   122192357.400 7  23252431.320    95214826.89046
  23284220.620   122359460.767 7  23284223.200    95345074.52246
  20607456.140   108292965.501 8  20607458.100    84384177.22248
  21876415.380   114961329.719 7  21876414.780    89580266.68647
  20308190.520   106720327.557 8  20308190.520    83158715.63248
  21753865.380   114317422.685 8  21753864.400    89078553.43347
 14  1  8  0 40 30.0000000  0  7G02G31G24G25G14G29G12
  23153985.940   121675022.451 7  23153984.080    94811694.33246
  23235269.620   122102167.021 7  23235268.620    95144548.65846
  23302393.140   122454957.852 7  23302395.600    95419487.81046
  20607008.600   108290613.592 8  20607010.560    84382344.55548
  21883036.080   114996122.140 7  21883035.640    89607377.64046
  20301446.700   106684888.646 8  20301446.640    83131100.92548
  21764091.080   114371159.590 8  21764089.980    89120426.32847
 14  1  8  0 41  0.0000000  0  7G02G31G24G25G14G29G12
  23156412.080   121687771.724 7  23156410.080    94821628.82746
  23218131.740   122012107.655 7  23218130.900    95074372.56046
  23320609.260   122550683.804 7  23320611.620    95494079.41646
  20606602.660   108288479.932 8  20606604.480    84380681.95248
  21889756.900   115031440.539 7  21889756.520    89634898.46147
  20294798.460   106649951.869 8  20294798.360    83103877.46948
  21774341.560   114425027.319 7  21774340.560    89162401.16747
 14  1  8  0 41 30.0000000  0  7G02G31G24G25G14G29G12
  23158932.000   121701013.318 7  23158929.880    94831946.95646
  23201018.640   121922177.731 7  23201017.800    95004297.28246
  23338867.960   122646633.124 7  23338870.140    95568845.12646
  20606237.460   108286560.806 8  20606239.180    84379186.52448
  21896576.740   115067279.211 7  21896576.440    89662824.68146
  20288245.100   106615513.854 8  20288244.980    83077042.66548
  21784616.080   114479021.266 8  21784615.280    89204474.36947
 14  1  8  0 42  0.0000000  0  7G02G31G24G25G14G29G12
  23161546.520   121714752.174 7  23161544.220    94842652.57346
  23183931.440   121832384.070 7  23183930.560    94934328.18846
  23357169.860   122742809.425 7  23357171.900    95643787.67846
  20605914.060   108284861.112 8  20605915.740    84377862.08748
  21903496.220   115103641.216 7  21903495.900    89691158.70246
  20281787.620   106581579.572 8  20281787.500    83050600.38548
  21794915.700   114533146.744 8  21794915.000    89246650.04147
 14  1  8  0 42 30.0000000  0  7G02G31G24G25G14G29G12
  23164255.100   121728985.906 7  23164252.640    94853743.78646
  23166870.260   121742726.591 7  23166869.220    94864465.22746
  23375514.000   122839208.484 7  23375516.100    95718903.80946
  20605632.000   108283378.753 8  20605633.720    84376707.02048
  21910514.620   115140522.842 7  21910514.280    89719897.63147
  20275425.620   106548146.945 8  20275425.480    83024549.00948
  21805240.060   114587401.803 8  21805239.360    89288926.68847
 14  1  8  0 43  0.0000000  0  7G02G31G24G25G14G29G12
  23167058.120   121743715.323 7  23167055.320    94865221.25846
  23149835.620   121653208.341 7  23149834.400    94794710.74746
  23393900.420   122935830.333 6  23393902.780    95794193.53546
  20605391.360   108282114.484 8  20605393.180    84375721.86748
  21917631.760   115177923.118 7  21917631.360    89749040.68246
  20269159.360   106515217.093 8  20269159.140    82998889.40148
  21815589.260   114641786.543 8  21815588.440    89331304.40247
 14  1  8  0 43 30.0000000  0  7G02G31G24G25G14G29G12
  23169955.520   121758940.404 7  23169952.380    94877084.95946
  23132827.800   121563831.602 7  23132826.500    94725066.53446
  23412328.800   123032673.198 6  23412331.380    95869655.49146
  20605192.300   108281068.519 8  20605194.120    84374906.81948
  21924847.240   115215840.165 7  21924846.780    89778586.41846
  20262988.800   106482790.297 8  20262988.520    82973621.77848
  21825963.100   114696300.855 8  21825962.220    89373783.08047
 14  1  8  0 44  0.0000000  0  7G02G31G24G25G14G29G12
  23172946.720   121774658.543 7  23172943.340    94889332.86846
  23115846.900   121474595.803 7  23115845.600    94655532.14346
  23430798.480   123129732.933 6  23430801.340    95945286.42746
  20605034.280   108280238.032 8  20605036.060    84374259.67448
  21932160.120   115254269.619 7  21932159.660    89808531.42246
  20256913.380   106450863.897 8  20256913.100    82948744.07848
  21836361.060   114750941.429 8  21836360.140    89416360.12047
 14  1  8  0 44 30.0000000  0  7G02G31G24G25G14G29G12
  23176032.180   121790871.555 7  23176028.480    94901966.39246
  23098893.540   121385504.937 7  23098892.260    94586110.71446
  23449309.680   123227010.064 6  23449312.700    96021086.77546
  20604917.680   108279625.108 8  20604919.460    84373782.07148
  21939570.480   115293211.400 7  21939569.960    89838875.65746
  20250933.540   106419439.841 8  20250933.340    82924257.81348
  21846783.480   114805710.428 8  21846782.440    89459037.25047
 14  1  8  0 45  0.0000000  0  7G02G31G24G25G14G29G12
  23179211.680   121807578.637 7  23179207.680    94914984.90646
  23081968.080   121296560.383 7  23081966.780    94516803.27146
  23467861.820   123324502.018 6  23467864.760    96097054.51946
  20604842.320   108279228.912 8  20604844.120    84373473.33548
  21947077.760   115332662.606 7  21947077.200    89869616.84746
  20245049.220   106388517.625 8  20245049.080    82900162.58448
  21857230.300   114860607.224 8  21857229.040    89501813.96647
 14  1  8  0 45 30.0000000  0  7G02G31G24G25G14G29G12
  23182485.180   121824779.879 7  23182480.920    94928388.49746
  23065070.800   121207764.443 7  23065069.520    94447611.65046
  23486454.660   123422207.460 6  23486457.460    96173188.59946
  20604808.200   108279049.813 8  20604810.040    84373333.78148
  21954681.800   115372622.190 7  21954681.340    89900754.15846
  20239260.440   106358097.452 8  20239260.280    82876458.56948
  21867701.180   114915631.184 8  21867699.920    89544689.76547
 14  1  8  0 46  0.0000000  0  7G02G31G24G25G14G29G12
  23185852.880   121842477.299 7  23185848.680    94942178.67846
  23048202.640   121119122.042 7  23048201.380    94378539.63946
  23505088.400   123520127.687 6  23505091.260    96249490.06446
  20604815.880   108279090.282 8  20604817.660    84373365.31948
  21962382.600   115413090.349 7  21962382.240    89932287.77046
  20233567.680   106328181.820 8  20233567.500    82853147.69548
  21878196.480   114970784.447 8  21878195.440    89587666.31947
 14  1  8  0 46 30.0000000  0  7G02G31G24G25G14G29G12
  23189314.360   121860667.903 7  23189310.320    94956353.16546
  23031363.480   121030631.972 7  23031362.260    94309586.32546
  23523762.120   123618258.264 6  23523764.920    96325955.43346
  20604864.780   108279347.371 8  20604866.480    84373565.64148
  21970179.280   115454062.116 7  21970179.000    89964213.81046
  20227970.340   106298767.789 8  20227970.160    82830227.67548
  21888715.800   115026064.380 8  21888715.000    89630741.57947
 14  1  8  0 47  0.0000000  0  7G02G31G24G25G14G29G12
  23192869.960   121879352.802 7  23192865.860    94970912.84546
  23014554.040   120942297.910 7  23014552.760    94240754.58346
  23542475.500   123716598.236 6  23542478.260    96402583.93946
  20604955.120   108279822.398 8  20604956.900    84373935.80348
  21978071.820   115495536.987 7  21978071.420    89996531.87646
  20222468.640   106269856.473 8  20222468.460    82807699.38548
  21899259.360   115081471.969 8  21899258.700    89673916.30747
 14  1  8  0 47 30.0000000  0  7G02G31G24G25G14G29G12
  23196519.340   121898530.799 7  23196515.240    94985856.74346
  22997774.580   120854121.240 7  22997773.280    94172045.49946
  23561228.420   123815145.683 6  23561231.340    96479374.13546
  20605086.860   108280514.538 8  20605088.660    84374475.13048
  21986059.420   115537511.934 7  21986058.980    90029239.61846
  20217062.500   106241447.336 8  20217062.340    82785562.41248
  21909827.080   115137006.067 8  21909826.380    89717189.62447
 14  1  8  0 48  0.0000000  0  7G02G31G24G25G14G29G12
  23200263.000   121918203.957 7  23200258.860    95001186.50346
  22981025.800   120766106.009 7  22981024.620    94103462.22546
  23580020.760   123913900.293 6  23580023.840    96556325.77746
  20605260.380   108281425.922 8  20605262.120    84375185.30548
  21994142.140   115579987.130 7  21994141.720    90062337.15246
  20211752.320   106213542.415 8  20211752.200    82763818.32748
  21920419.200   115192668.054 8  21920418.380    89760562.59547
 14  1  8  0 48 30.0000000  0  7G02G31G24G25G14G29G12
  23204100.080   121938368.508 7  23204096.060    95016899.15746
  22964307.640   120678251.419 7  22964306.340    94035004.09546
  23598851.700   124012858.265 6  23598854.940    96633435.84646
  20605474.940   108282553.287 8  20605476.720    84376063.76948
  22002319.060   115622957.208 7  22002318.680    90095820.31446
  20206537.520   106186138.322 8  20206537.340    82742464.49948
  21931035.020   115248454.925 7  21931034.160    89804032.87247
 14  1  8  0 49  0.0000000  0  7G02G31G24G25G14G29G12
  23208031.100   121959027.259 7  23208027.380    95032996.89946
  22947620.840   120590562.069 7  22947619.560    93966674.75647
  23617721.500   124112020.367 6  23617724.760    96710705.01246
  20605731.140   108283899.635 8  20605732.960    84377112.86548
  22010590.240   115666422.902 7  22010589.860    90129689.69046
  20201418.560   106159237.842 8  20201418.360    82721503.08448
  21941674.960   115304369.122 7  21941674.180    89847602.35447
 14  1  8  0 49 30.0000000  0  7G02G31G24G25G14G29G12
  23212055.680   121980177.967 7  23212052.360    95049477.97846
  22930965.600   120503038.676 7  22930964.360    93898474.72646
  23636629.560   124211383.040 6  23636632.840    96788130.45546
  20606028.700   108285463.242 8  20606030.520    84378331.26648
  22018955.140   115710380.635 7  22018954.720    90163942.45046
  20196395.020   106132838.898 8  20196394.800    82700932.48148
  21952338.760   115360409.049 7  21952338.300    89891269.81747
 14  1  8  0 50  0.0000000  0  7G02G31G24G25G14G29G12
  23216173.460   122001818.576 7  23216170.520    95066340.77046
  22914342.000   120415681.481 7  22914340.700    93830404.19646
  23655575.260   124310943.252 6  23655578.420    96865709.80746
  20606367.180   108287242.313 8  20606369.040    84379717.55848
  22027413.000   115754826.264 7  22027412.500    90198575.39446
  20191466.600   106106939.898 8  20191466.360    82680751.43948
  21963026.180   115416572.601 7  21963025.900    89935033.61347
 14  1  8  0 50 30.0000000  0  7G02G31G24G25G14G29G12
  23220385.260   122023952.576 7  23220382.640    95083588.04246
  22897751.300   120328496.929 7  22897750.000    93762468.18646
  23674558.940   124410703.435 6  23674562.040    96943444.97946
  20606747.460   108289240.982 8  20606749.360    84381274.95848
  22035964.100   115799761.923 7  22035963.640    90233590.17246
  20186634.060   106081544.702 8  20186633.840    82660962.97348
  21973737.980   115472863.663 8  21973737.740    89978896.76847
 14  1  8  0 51  0.0000000  0  7G02G31G24G25G14G29G12
  23224690.280   122046576.801 7  23224687.980    95101217.30746
  22881193.300   120241484.094 7  22881192.040    93694665.97946
  23693579.900   124510658.912 6  23693582.960    97021332.34646
  20607169.020   108291456.326 8  20607170.940    84383001.22148
  22044607.400   115845182.424 7  22044606.900    90268982.76046
  20181896.760   106056650.017 8  20181896.540    82641564.50548
  21984473.520   115529278.855 7  21984473.140    90022856.64447
 14  1  8  0 51 30.0000000  0  7G02G31G24G25G14G29G12
  23229088.800   122069691.600 7  23229086.820    95119228.85346
  22864668.520   120154645.915 7  22864667.400    93626999.89846
  23712637.840   124610808.285 6  23712640.700    97099370.80246
  20607631.940   108293889.121 8  20607633.940    84384896.89748
  22053342.560   115891086.157 7  22053342.020    90304751.89546
  20177254.800   106032256.237 8  20177254.580    82622556.34448
  21995232.700   115585818.824 7  21995232.200    90066913.75047
 14  1  8  0 52  0.0000000  0  7G02G31G24G25G14G29G12
  23233580.720   122093296.392 7  23233578.780    95137622.19946
  22848177.540   120067984.652 7  22848176.320    93559471.65446
  23731732.260   124711150.345 6  23731735.060    97177559.38346
  20608136.280   108296539.335 8  20608138.340    84386961.99548
  22062169.260   115937471.018 7  22062168.740    90340895.93246
  20172708.080   106008363.157 8  20172707.940    82603938.36048
  22006015.580   115642483.281 7  22006014.980    90111067.85847
 14  1  8  0 52 30.0000000  0  7G02G31G24G25G14G29G12
  23238166.080   122117392.217 7  23238164.200    95156398.18946
  22831720.820   119981503.734 7  22831719.460    93492083.95647
  23750863.260   124811684.581 6  23750866.160    97255897.71446
  20608682.320   108299408.456 8  20608684.280    84389197.66148
  22071087.340   115984336.360 7  22071086.960    90377414.37046
  20168256.920   105984972.237 8  20168256.860    82585711.67548
  22016822.460   115699273.311 8  22016821.840    90155319.81847
 14  1  8  0 53  0.0000000  0  7G02G31G24G25G14G29G12
  23242844.700   122141979.971 7  23242843.140    95175557.44946
  22815299.020   119895207.011 7  22815297.620    93424839.77347
  23770030.740   124912410.907 6  23770033.760    97334385.75246
  20609270.300   108302498.167 8  20609272.220    84391605.23048
  22080096.780   116031681.316 7  22080096.440    90414306.51846
  20163901.620   105962084.779 8  20163901.500    82567877.29448
  22027653.740   115756190.892 8  22027653.060    90199671.16147
 14  1  8  0 53 30.0000000  0  7G02G31G24G25G14G29G12
  23247615.840   122167053.314 7  23247614.440    95195095.12946
  22798911.600   119809090.761 7  22798910.200    93357736.19946
  23789233.500   125013321.823 6  23789236.580    97413017.61146
  20609899.080   108305802.542 8  20609901.060    84394180.06348
  22089196.060   116079497.682 7  22089195.660    90451566.01046
  20159640.920   105939694.405 8  20159640.720    82550430.26048
  22038508.040   115813229.244 8  22038507.060    90244116.62047
 14  1  8  0 54  0.0000000  0  7G02G31G24G25G14G29G12
  23252479.840   122192612.855 7  23252478.400    95215011.64146
  22782559.300   119723158.295 7  22782557.820    93290775.82846
  23808471.340   125114416.819 6  23808474.200    97491792.90546
  20610569.000   108309322.800 8  20610570.880    84396923.11848
  22098384.860   116127784.516 7  22098384.480    90489192.09946
  20155475.000   105917802.174 8  20155474.720    82533371.40148
  22049385.620   115870389.870 8  22049384.380    90288657.35747
 14  1  8  0 54 30.0000000  0  7G02G31G24G25G14G29G12
  23257437.080   122218661.094 7  23257435.400    95235308.97446
  22766242.960   119637414.882 7  22766241.480    93223962.77547
  23827744.520   125215696.984 6  23827747.100    97570712.51246
  20611280.540   108313061.942 8  20611282.380    84399836.72748
  22107663.180   116176542.256 7  22107662.780    90527185.13946
  20151404.260   105896410.512 8  20151404.000    82516702.56748
  22060286.840   115927675.319 8  22060285.520    90333295.36147
 14  1  8  0 55  0.0000000  0  7G02G31G24G25G14G29G12
  23262487.380   122245199.065 7  23262485.580    95255987.90646
  22749963.240   119551864.305 7  22749961.820    93157299.99447
  23847052.820   125317162.296 6  23847055.360    97649776.32245
  20612034.020   108317021.627 8  20612035.920    84402922.18748
  22117030.900   116225770.220 7  22117030.520    90565544.57546
  20147429.000   105875520.590 8  20147428.820    82500424.70448
  22071211.940   115985086.718 7  22071210.680    90378031.49247
 14  1  8  0 55 30.0000000  0  7G02G31G24G25G14G29G12
  23267630.660   122272226.230 7  23267628.700    95277048.03546
  22733720.600   119466509.024 7  22733719.280    93090789.39947
  23866395.940   125418811.009 6  23866398.500    97728983.09546
  20612829.620   108321202.160 8  20612831.440    84406179.74348
  22126487.680   116275466.484 7  22126487.460    90604268.91946
  20143549.240   105855132.532 8  20143549.100    82484537.90548
  22082161.060   116042624.627 8  22082159.860    90422866.21247
 14  1  8  0 56  0.0000000  0  7G02G31G24G25G14G29G12
  23272865.940   122299736.522 7  23272863.560    95298484.62846
  22717514.500   119381345.469 7  22717513.240    93024428.19247
  23885772.680   125520636.234 6  23885775.340    97808327.40046
  20613666.100   108325597.942 8  20613667.880    84409605.02048
  22136032.100   116325622.938 7  22136031.900    90643351.85946
  20139763.840   105835240.220 8  20139763.720    82469037.41348
  22093132.900   116100282.874 7  22093131.860    90467794.69947
 14  1  8  0 56 30.0000000  0  8G02G31G24G25G14G21G29G12
  23278194.520   122327737.282 7  23278191.600    95320303.41646
  22701346.760   119296383.774 7  22701345.580    92958224.28247
  23905184.160   125622643.740 6  23905186.760    97887813.75046
  20614545.000   108330216.969 8  20614546.820    84413204.24748
  22145665.200   116376245.200 7  22145664.900    90682797.76446
  24683778.800   129714131.398 6  24683778.800   101075954.38344
  20136074.240   105815851.228 8  20136074.140    82453929.11848
  22104129.120   116158069.288 7  22104128.180    90512823.07047
 14  1  8  0 57  0.0000000  0  8G02G31G24G25G14G21G29G12
  23283613.380   122356212.758 7  23283610.080    95342492.11846
  22685215.080   119211611.295 7  22685213.960    92892167.79647
  23924627.100   125724816.751 6  23924629.700    97967429.08546
  20615463.660   108335044.136 8  20615465.440    84416965.65648
  22155383.580   116427315.500 7  22155383.280    90722592.78346
